{
 "gn_divisions": [
  {
   "name_en": "Sammanthranapura",
   "name_si": "සම්මන්ත්‍රණපුර",
   "name_ta": "",
   "pcode": "LK1103005",
   "ds_division": "Colombo",
   "ds_pcode": "LK1103",
   "district": "Colombo",
   "province": "Western",
   "lat": 6.97793347,
   "lng": 79.87812849
  },
  {
   "name_en": "Mattakkuliya",
   "name_si": "මට්ටක්කුලිය",
   "name_ta": "",
   "pcode": "LK1103010",
   "ds_division": "Colombo",
   "ds_pcode": "LK1103",
   "district": "Colombo",
   "province": "Western",
   "lat": 6.97217763,
   "lng": 79.87696217
  },
  {
   "name_en": "Modara",
   "name_si": "මෝදර",
   "name_ta": "",
   "pcode": "LK1103015",
   "ds_division": "Colombo",
   "ds_pcode": "LK1103",
   "district": "Colombo",
   "province": "Western",
   "lat": 6.96466116,
   "lng": 79.87173574
  },
  {
   "name_en": "Madampitiya",
   "name_si": "මාදම්පිටිය",
   "name_ta": "",
   "pcode": "LK1103020",
   "ds_division": "Colombo",
   "ds_pcode": "LK1103",
   "district": "Colombo",
   "province": "Western",
   "lat": 6.96177771,
   "lng": 79.87549709
  },
  {
   "name_en": "Mahawatta",
   "name_si": "මහවත්ත",
   "name_ta": "",
   "pcode": "LK1103025",
   "ds_division": "Colombo",
   "ds_pcode": "LK1103",
   "district": "Colombo",
   "province": "Western",
   "lat": 6.95746294,
   "lng": 79.87418643
  },
  {
   "name_en": "Aluthmawatha",
   "name_si": "අලුත් මාවත",
   "name_ta": "",
   "pcode": "LK1103030",
   "ds_division": "Colombo",
   "ds_pcode": "LK1103",
   "district": "Colombo",
   "province": "Western",
   "lat": 6.96180015,
   "lng": 79.86561377
  },
  {
   "name_en": "Lunupokuna",
   "name_si": "ලුණුපොකුණ",
   "name_ta": "",
   "pcode": "LK1103035",
   "ds_division": "Colombo",
   "ds_pcode": "LK1103",
   "district": "Colombo",
   "province": "Western",
   "lat": 6.95571588,
   "lng": 79.85910074
  },
  {
   "name_en": "Bloemendhal",
   "name_si": "බ්ලූමැන්ඩල්",
   "name_ta": "",
   "pcode": "LK1103040",
   "ds_division": "Colombo",
   "ds_pcode": "LK1103",
   "district": "Colombo",
   "province": "Western",
   "lat": 6.95104653,
   "lng": 79.8701481
  },
  {
   "name_en": "Kotahena East",
   "name_si": "කොට‍හේන නැගෙනහිර",
   "name_ta": "",
   "pcode": "LK1103045",
   "ds_division": "Colombo",
   "ds_pcode": "LK1103",
   "district": "Colombo",
   "province": "Western",
   "lat": 6.94936019,
   "lng": 79.8639379
  },
  {
   "name_en": "Kotahena West",
   "name_si": "කොටහේන බටහිර",
   "name_ta": "",
   "pcode": "LK1103050",
   "ds_division": "Colombo",
   "ds_pcode": "LK1103",
   "district": "Colombo",
   "province": "Western",
   "lat": 6.94899498,
   "lng": 79.85973396
  },
  {
   "name_en": "Kochchikade North",
   "name_si": "කොච්චිකඩේ උතුර",
   "name_ta": "",
   "pcode": "LK1103055",
   "ds_division": "Colombo",
   "ds_pcode": "LK1103",
   "district": "Colombo",
   "province": "Western",
   "lat": 6.94280727,
   "lng": 79.85521156
  },
  {
   "name_en": "Jinthupitiya",
   "name_si": "ජින්තුපිටිය",
   "name_ta": "",
   "pcode": "LK1103060",
   "ds_division": "Colombo",
   "ds_pcode": "LK1103",
   "district": "Colombo",
   "province": "Western",
   "lat": 6.94390196,
   "lng": 79.86029594
  },
  {
   "name_en": "Masangasweediya",
   "name_si": "මසංගස්වීදිය",
   "name_ta": "",
   "pcode": "LK1103065",
   "ds_division": "Colombo",
   "ds_pcode": "LK1103",
   "district": "Colombo",
   "province": "Western",
   "lat": 6.9424898,
   "lng": 79.86333163
  },
  {
   "name_en": "New Bazaar",
   "name_si": "නිව් බසාර්",
   "name_ta": "",
   "pcode": "LK1103070",
   "ds_division": "Colombo",
   "ds_pcode": "LK1103",
   "district": "Colombo",
   "province": "Western",
   "lat": 6.94197443,
   "lng": 79.86671288
  },
  {
   "name_en": "Grandpass South",
   "name_si": "ග්‍රෑන්ඩ්පාස් දකු",
   "name_ta": "",
   "pcode": "LK1103075",
   "ds_division": "Colombo",
   "ds_pcode": "LK1103",
   "district": "Colombo",
   "province": "Western",
   "lat": 6.94199533,
   "lng": 79.87515143
  },
  {
   "name_en": "Grandpass North",
   "name_si": "ග්‍රෑන්ඩ්පාස් උතු",
   "name_ta": "",
   "pcode": "LK1103080",
   "ds_division": "Colombo",
   "ds_pcode": "LK1103",
   "district": "Colombo",
   "province": "Western",
   "lat": 6.94722428,
   "lng": 79.87368124
  },
  {
   "name_en": "Nawagampura",
   "name_si": "නවගම්පුර",
   "name_ta": "",
   "pcode": "LK1103085",
   "ds_division": "Colombo",
   "ds_pcode": "LK1103",
   "district": "Colombo",
   "province": "Western",
   "lat": 6.94631068,
   "lng": 79.87715876
  },
  {
   "name_en": "Maligawatta East",
   "name_si": "මාළිගාවත්ත නැගෙනහ",
   "name_ta": "",
   "pcode": "LK1103090",
   "ds_division": "Colombo",
   "ds_pcode": "LK1103",
   "district": "Colombo",
   "province": "Western",
   "lat": 6.93523825,
   "lng": 79.87492235
  },
  {
   "name_en": "Khettarama",
   "name_si": "ඛෙත්තාරාම",
   "name_ta": "",
   "pcode": "LK1103095",
   "ds_division": "Colombo",
   "ds_pcode": "LK1103",
   "district": "Colombo",
   "province": "Western",
   "lat": 6.93779813,
   "lng": 79.87076448
  },
  {
   "name_en": "Aluthkade East",
   "name_si": "අලුත්කඩේ නැගෙනහිර",
   "name_ta": "",
   "pcode": "LK1103100",
   "ds_division": "Colombo",
   "ds_pcode": "LK1103",
   "district": "Colombo",
   "province": "Western",
   "lat": 6.93668483,
   "lng": 79.86449597
  },
  {
   "name_en": "Aluthkade West",
   "name_si": "අලුත්කඩේ බටහිර",
   "name_ta": "",
   "pcode": "LK1103105",
   "ds_division": "Colombo",
   "ds_pcode": "LK1103",
   "district": "Colombo",
   "province": "Western",
   "lat": 6.93700249,
   "lng": 79.85985
  },
  {
   "name_en": "Kochchikade South",
   "name_si": "කොච්චිකඩේ දකුණ",
   "name_ta": "",
   "pcode": "LK1103110",
   "ds_division": "Colombo",
   "ds_pcode": "LK1103",
   "district": "Colombo",
   "province": "Western",
   "lat": 6.93858112,
   "lng": 79.85806164
  },
  {
   "name_en": "Pettah",
   "name_si": "පිටකොටුව",
   "name_ta": "",
   "pcode": "LK1103115",
   "ds_division": "Colombo",
   "ds_pcode": "LK1103",
   "district": "Colombo",
   "province": "Western",
   "lat": 6.94005449,
   "lng": 79.85153811
  },
  {
   "name_en": "Fort",
   "name_si": "කොටුව",
   "name_ta": "",
   "pcode": "LK1103120",
   "ds_division": "Colombo",
   "ds_pcode": "LK1103",
   "district": "Colombo",
   "province": "Western",
   "lat": 6.94405275,
   "lng": 79.8355327
  },
  {
   "name_en": "Galle Face",
   "name_si": "ගාලුමුවදොර",
   "name_ta": "",
   "pcode": "LK1103125",
   "ds_division": "Colombo",
   "ds_pcode": "LK1103",
   "district": "Colombo",
   "province": "Western",
   "lat": 6.92404457,
   "lng": 79.84686129
  },
  {
   "name_en": "Slave Island",
   "name_si": "කොම්පඤ්ඤවීදිය",
   "name_ta": "",
   "pcode": "LK1103130",
   "ds_division": "Colombo",
   "ds_pcode": "LK1103",
   "district": "Colombo",
   "province": "Western",
   "lat": 6.92537015,
   "lng": 79.85039745
  },
  {
   "name_en": "Hunupitiya",
   "name_si": "හුණුපිටිය",
   "name_ta": "",
   "pcode": "LK1103135",
   "ds_division": "Colombo",
   "ds_pcode": "LK1103",
   "district": "Colombo",
   "province": "Western",
   "lat": 6.92361388,
   "lng": 79.85554158
  },
  {
   "name_en": "Suduwella",
   "name_si": "සුදුවැල්ල",
   "name_ta": "",
   "pcode": "LK1103140",
   "ds_division": "Colombo",
   "ds_pcode": "LK1103",
   "district": "Colombo",
   "province": "Western",
   "lat": 6.92655401,
   "lng": 79.85914308
  },
  {
   "name_en": "Keselwatta",
   "name_si": "කෙසෙල්වත්ත",
   "name_ta": "",
   "pcode": "LK1103145",
   "ds_division": "Colombo",
   "ds_pcode": "LK1103",
   "district": "Colombo",
   "province": "Western",
   "lat": 6.93465124,
   "lng": 79.86112416
  },
  {
   "name_en": "Panchikawatta",
   "name_si": "පංචිකාවත්ත",
   "name_ta": "",
   "pcode": "LK1103150",
   "ds_division": "Colombo",
   "ds_pcode": "LK1103",
   "district": "Colombo",
   "province": "Western",
   "lat": 6.9317646,
   "lng": 79.86366274
  },
  {
   "name_en": "Maligawatta West",
   "name_si": "මාළිගාවත්ත බටහිර",
   "name_ta": "",
   "pcode": "LK1103155",
   "ds_division": "Colombo",
   "ds_pcode": "LK1103",
   "district": "Colombo",
   "province": "Western",
   "lat": 6.93169528,
   "lng": 79.86935858
  },
  {
   "name_en": "Maligakanda",
   "name_si": "මාළිගාකන්ද",
   "name_ta": "",
   "pcode": "LK1103160",
   "ds_division": "Colombo",
   "ds_pcode": "LK1103",
   "district": "Colombo",
   "province": "Western",
   "lat": 6.92864574,
   "lng": 79.86785123
  },
  {
   "name_en": "Maradana",
   "name_si": "මරදාන",
   "name_ta": "",
   "pcode": "LK1103165",
   "ds_division": "Colombo",
   "ds_pcode": "LK1103",
   "district": "Colombo",
   "province": "Western",
   "lat": 6.92608146,
   "lng": 79.86418718
  },
  {
   "name_en": "Ibbanwala",
   "name_si": "ඉබ්බන්වල",
   "name_ta": "",
   "pcode": "LK1103170",
   "ds_division": "Colombo",
   "ds_pcode": "LK1103",
   "district": "Colombo",
   "province": "Western",
   "lat": 6.91807539,
   "lng": 79.86303199
  },
  {
   "name_en": "Wekanda",
   "name_si": "වෑකන්ද",
   "name_ta": "",
   "pcode": "LK1103175",
   "ds_division": "Colombo",
   "ds_pcode": "LK1103",
   "district": "Colombo",
   "province": "Western",
   "lat": 6.91953118,
   "lng": 79.85142366
  },
  {
   "name_en": "Wadulla",
   "name_si": "වදුල්ල",
   "name_ta": "",
   "pcode": "LK1106005",
   "ds_division": "Kolonnawa",
   "ds_pcode": "LK1106",
   "district": "Colombo",
   "province": "Western",
   "lat": 6.95073824,
   "lng": 79.87845647
  },
  {
   "name_en": "Sedawatta",
   "name_si": "සේදවත්ත",
   "name_ta": "",
   "pcode": "LK1106010",
   "ds_division": "Kolonnawa",
   "ds_pcode": "LK1106",
   "district": "Colombo",
   "province": "Western",
   "lat": 6.95392539,
   "lng": 79.88418346
  },
  {
   "name_en": "Halmulla",
   "name_si": "හල්මුල්ල",
   "name_ta": "",
   "pcode": "LK1106015",
   "ds_division": "Kolonnawa",
   "ds_pcode": "LK1106",
   "district": "Colombo",
   "province": "Western",
   "lat": 6.95298963,
   "lng": 79.89611594
  },
  {
   "name_en": "Kotuvila",
   "name_si": "කොටුවිල",
   "name_ta": "",
   "pcode": "LK1106020",
   "ds_division": "Kolonnawa",
   "ds_pcode": "LK1106",
   "district": "Colombo",
   "province": "Western",
   "lat": 6.94941246,
   "lng": 79.89182628
  },
  {
   "name_en": "Veheragoda",
   "name_si": "වෙහෙරගොඩ",
   "name_ta": "",
   "pcode": "LK1106025",
   "ds_division": "Kolonnawa",
   "ds_pcode": "LK1106",
   "district": "Colombo",
   "province": "Western",
   "lat": 6.94784876,
   "lng": 79.88626844
  },
  {
   "name_en": "Orugodawatta",
   "name_si": "ඔරුගොඩවත්ත",
   "name_ta": "",
   "pcode": "LK1106030",
   "ds_division": "Kolonnawa",
   "ds_pcode": "LK1106",
   "district": "Colombo",
   "province": "Western",
   "lat": 6.94461183,
   "lng": 79.88171879
  },
  {
   "name_en": "Meethotamulla",
   "name_si": "මීතොටමුල්ල",
   "name_ta": "",
   "pcode": "LK1106035",
   "ds_division": "Kolonnawa",
   "ds_pcode": "LK1106",
   "district": "Colombo",
   "province": "Western",
   "lat": 6.937498,
   "lng": 79.88497264
  },
  {
   "name_en": "Welewatta",
   "name_si": "වෙලේවත්ත",
   "name_ta": "",
   "pcode": "LK1106040",
   "ds_division": "Kolonnawa",
   "ds_pcode": "LK1106",
   "district": "Colombo",
   "province": "Western",
   "lat": 6.94364099,
   "lng": 79.89256779
  },
  {
   "name_en": "Kittampahuwa",
   "name_si": "කිත්තම්පහුව",
   "name_ta": "",
   "pcode": "LK1106045",
   "ds_division": "Kolonnawa",
   "ds_pcode": "LK1106",
   "district": "Colombo",
   "province": "Western",
   "lat": 6.94375779,
   "lng": 79.8987326
  },
  {
   "name_en": "Wennawatta",
   "name_si": "වෙන්නවත්ත",
   "name_ta": "",
   "pcode": "LK1106050",
   "ds_division": "Kolonnawa",
   "ds_pcode": "LK1106",
   "district": "Colombo",
   "province": "Western",
   "lat": 6.94241022,
   "lng": 79.9040289
  },
  {
   "name_en": "Maha Buthgamuwa B",
   "name_si": "මහ බුත්ගමුව B",
   "name_ta": "",
   "pcode": "LK1106055",
   "ds_division": "Kolonnawa",
   "ds_pcode": "LK1106",
   "district": "Colombo",
   "province": "Western",
   "lat": 6.94491027,
   "lng": 79.90999025
  },
  {
   "name_en": "Kuda Buthgamuwa",
   "name_si": "කුඩා බුත්ගමුව",
   "name_ta": "",
   "pcode": "LK1106060",
   "ds_division": "Kolonnawa",
   "ds_pcode": "LK1106",
   "district": "Colombo",
   "province": "Western",
   "lat": 6.94121662,
   "lng": 79.91703443
  },
  {
   "name_en": "Kelanimulla",
   "name_si": "කැලණිමුල්ල",
   "name_ta": "",
   "pcode": "LK1106065",
   "ds_division": "Kolonnawa",
   "ds_pcode": "LK1106",
   "district": "Colombo",
   "province": "Western",
   "lat": 6.94514304,
   "lng": 79.92038015
  },
  {
   "name_en": "Ambathale",
   "name_si": "අඹතලේ",
   "name_ta": "",
   "pcode": "LK1106070",
   "ds_division": "Kolonnawa",
   "ds_pcode": "LK1106",
   "district": "Colombo",
   "province": "Western",
   "lat": 6.94137497,
   "lng": 79.9383477
  },
  {
   "name_en": "Mulleriyawa North",
   "name_si": "මුල්ලේරියාව උතුර",
   "name_ta": "",
   "pcode": "LK1106075",
   "ds_division": "Kolonnawa",
   "ds_pcode": "LK1106",
   "district": "Colombo",
   "province": "Western",
   "lat": 6.94206443,
   "lng": 79.92953952
  },
  {
   "name_en": "Belagama",
   "name_si": "බැලගම",
   "name_ta": "",
   "pcode": "LK1106080",
   "ds_division": "Kolonnawa",
   "ds_pcode": "LK1106",
   "district": "Colombo",
   "province": "Western",
   "lat": 6.93508995,
   "lng": 79.92279666
  },
  {
   "name_en": "Kotikawatta East",
   "name_si": "කොටිකාවත්ත නැගෙනහ",
   "name_ta": "",
   "pcode": "LK1106085",
   "ds_division": "Kolonnawa",
   "ds_pcode": "LK1106",
   "district": "Colombo",
   "province": "Western",
   "lat": 6.93142357,
   "lng": 79.91555001
  },
  {
   "name_en": "Maha Buthgamuwa A",
   "name_si": "මහ බුත්ගමුව A",
   "name_ta": "",
   "pcode": "LK1106090",
   "ds_division": "Kolonnawa",
   "ds_pcode": "LK1106",
   "district": "Colombo",
   "province": "Western",
   "lat": 6.93690398,
   "lng": 79.91319714
  },
  {
   "name_en": "Maha Buthgamuwa C",
   "name_si": "මහ බුත්ගමුව C",
   "name_ta": "",
   "pcode": "LK1106095",
   "ds_division": "Kolonnawa",
   "ds_pcode": "LK1106",
   "district": "Colombo",
   "province": "Western",
   "lat": 6.93732573,
   "lng": 79.90743621
  },
  {
   "name_en": "Wellampitiya",
   "name_si": "වැල්ලම්පිටිය",
   "name_ta": "",
   "pcode": "LK1106100",
   "ds_division": "Kolonnawa",
   "ds_pcode": "LK1106",
   "district": "Colombo",
   "province": "Western",
   "lat": 6.93939775,
   "lng": 79.8943985
  },
  {
   "name_en": "Kuruniyawatta",
   "name_si": "කුරුණියවත්ත",
   "name_ta": "",
   "pcode": "LK1106105",
   "ds_division": "Kolonnawa",
   "ds_pcode": "LK1106",
   "district": "Colombo",
   "province": "Western",
   "lat": 6.93993055,
   "lng": 79.8874963
  },
  {
   "name_en": "Kolonnawa",
   "name_si": "කොළොන්නාව",
   "name_ta": "",
   "pcode": "LK1106110",
   "ds_division": "Kolonnawa",
   "ds_pcode": "LK1106",
   "district": "Colombo",
   "province": "Western",
   "lat": 6.93333948,
   "lng": 79.88975249
  },
  {
   "name_en": "Dahampura",
   "name_si": "දහම්පුර",
   "name_ta": "",
   "pcode": "LK1106115",
   "ds_division": "Kolonnawa",
   "ds_pcode": "LK1106",
   "district": "Colombo",
   "province": "Western",
   "lat": 6.93700495,
   "lng": 79.89228633
  },
  {
   "name_en": "Singhapura",
   "name_si": "සිංහපුර",
   "name_ta": "",
   "pcode": "LK1106120",
   "ds_division": "Kolonnawa",
   "ds_pcode": "LK1106",
   "district": "Colombo",
   "province": "Western",
   "lat": 6.93352377,
   "lng": 79.89603549
  },
  {
   "name_en": "Megoda Kolonnawa",
   "name_si": "මෙගොඩ කොළොන්නාව",
   "name_ta": "",
   "pcode": "LK1106125",
   "ds_division": "Kolonnawa",
   "ds_pcode": "LK1106",
   "district": "Colombo",
   "province": "Western",
   "lat": 6.9326724,
   "lng": 79.90015061
  },
  {
   "name_en": "Bopetta",
   "name_si": "බෝපැත්ත",
   "name_ta": "",
   "pcode": "LK1106130",
   "ds_division": "Kolonnawa",
   "ds_pcode": "LK1106",
   "district": "Colombo",
   "province": "Western",
   "lat": 6.93268742,
   "lng": 79.90461865
  },
  {
   "name_en": "Batalandahena",
   "name_si": "බටලන්දහේන",
   "name_ta": "",
   "pcode": "LK1106135",
   "ds_division": "Kolonnawa",
   "ds_pcode": "LK1106",
   "district": "Colombo",
   "province": "Western",
   "lat": 6.9300886,
   "lng": 79.90938102
  },
  {
   "name_en": "Kotikawatta West",
   "name_si": "කොටිකාවත්ත බටහිර",
   "name_ta": "",
   "pcode": "LK1106140",
   "ds_division": "Kolonnawa",
   "ds_pcode": "LK1106",
   "district": "Colombo",
   "province": "Western",
   "lat": 6.92921735,
   "lng": 79.92023274
  },
  {
   "name_en": "Mulleriyawa South",
   "name_si": "මුල්ලේරියාව දකුණ",
   "name_ta": "",
   "pcode": "LK1106145",
   "ds_division": "Kolonnawa",
   "ds_pcode": "LK1106",
   "district": "Colombo",
   "province": "Western",
   "lat": 6.93028321,
   "lng": 79.92989911
  },
  {
   "name_en": "Malgama",
   "name_si": "මල්ගම",
   "name_ta": "",
   "pcode": "LK1106150",
   "ds_division": "Kolonnawa",
   "ds_pcode": "LK1106",
   "district": "Colombo",
   "province": "Western",
   "lat": 6.93125069,
   "lng": 79.93683938
  },
  {
   "name_en": "Udumulla North",
   "name_si": "උඩුමුල්ල උතුර",
   "name_ta": "",
   "pcode": "LK1106155",
   "ds_division": "Kolonnawa",
   "ds_pcode": "LK1106",
   "district": "Colombo",
   "province": "Western",
   "lat": 6.93234477,
   "lng": 79.94494111
  },
  {
   "name_en": "Maligagodella",
   "name_si": "මාළිගාගොඩැල්ල",
   "name_ta": "",
   "pcode": "LK1106160",
   "ds_division": "Kolonnawa",
   "ds_pcode": "LK1106",
   "district": "Colombo",
   "province": "Western",
   "lat": 6.92569183,
   "lng": 79.95129497
  },
  {
   "name_en": "Rajasinghagama",
   "name_si": "රාජසිංහගම",
   "name_ta": "",
   "pcode": "LK1106165",
   "ds_division": "Kolonnawa",
   "ds_pcode": "LK1106",
   "district": "Colombo",
   "province": "Western",
   "lat": 6.92094387,
   "lng": 79.94958029
  },
  {
   "name_en": "Udumulla South",
   "name_si": "උඩුමුල්ල දකුණ",
   "name_ta": "",
   "pcode": "LK1106170",
   "ds_division": "Kolonnawa",
   "ds_pcode": "LK1106",
   "district": "Colombo",
   "province": "Western",
   "lat": 6.9171254,
   "lng": 79.94082221
  },
  {
   "name_en": "Himbutana East",
   "name_si": "හිඹුටාන නැගෙනහිර",
   "name_ta": "",
   "pcode": "LK1106175",
   "ds_division": "Kolonnawa",
   "ds_pcode": "LK1106",
   "district": "Colombo",
   "province": "Western",
   "lat": 6.9213761,
   "lng": 79.93757797
  },
  {
   "name_en": "Himbutana West",
   "name_si": "හිඹුටාන බටහිර",
   "name_ta": "",
   "pcode": "LK1106180",
   "ds_division": "Kolonnawa",
   "ds_pcode": "LK1106",
   "district": "Colombo",
   "province": "Western",
   "lat": 6.92238687,
   "lng": 79.93236722
  },
  {
   "name_en": "Malpura",
   "name_si": "මල්පුර",
   "name_ta": "",
   "pcode": "LK1106185",
   "ds_division": "Kolonnawa",
   "ds_pcode": "LK1106",
   "district": "Colombo",
   "province": "Western",
   "lat": 6.92701266,
   "lng": 79.92518539
  },
  {
   "name_en": "Gothatuwa New Town",
   "name_si": "ගොතටුව නව නගරය",
   "name_ta": "",
   "pcode": "LK1106190",
   "ds_division": "Kolonnawa",
   "ds_pcode": "LK1106",
   "district": "Colombo",
   "province": "Western",
   "lat": 6.92479751,
   "lng": 79.91457513
  },
  {
   "name_en": "Kajugahawatta",
   "name_si": "කජුගහවත්ත",
   "name_ta": "",
   "pcode": "LK1106195",
   "ds_division": "Kolonnawa",
   "ds_pcode": "LK1106",
   "district": "Colombo",
   "province": "Western",
   "lat": 6.92597194,
   "lng": 79.91074213
  },
  {
   "name_en": "Gothatuwa",
   "name_si": "ගොතටුව",
   "name_ta": "",
   "pcode": "LK1106200",
   "ds_division": "Kolonnawa",
   "ds_pcode": "LK1106",
   "district": "Colombo",
   "province": "Western",
   "lat": 6.92497223,
   "lng": 79.90482502
  },
  {
   "name_en": "Salamulla",
   "name_si": "සාලමුල්ල",
   "name_ta": "",
   "pcode": "LK1106205",
   "ds_division": "Kolonnawa",
   "ds_pcode": "LK1106",
   "district": "Colombo",
   "province": "Western",
   "lat": 6.92687298,
   "lng": 79.8969562
  },
  {
   "name_en": "Wijayapura",
   "name_si": "විජයපුර",
   "name_ta": "",
   "pcode": "LK1106210",
   "ds_division": "Kolonnawa",
   "ds_pcode": "LK1106",
   "district": "Colombo",
   "province": "Western",
   "lat": 6.92820109,
   "lng": 79.89167813
  },
  {
   "name_en": "Gajabapura",
   "name_si": "ගජබාපුර",
   "name_ta": "",
   "pcode": "LK1106215",
   "ds_division": "Kolonnawa",
   "ds_pcode": "LK1106",
   "district": "Colombo",
   "province": "Western",
   "lat": 6.92800096,
   "lng": 79.88657705
  },
  {
   "name_en": "Madinnagoda",
   "name_si": "මාදින්නාගොඩ",
   "name_ta": "",
   "pcode": "LK1106220",
   "ds_division": "Kolonnawa",
   "ds_pcode": "LK1106",
   "district": "Colombo",
   "province": "Western",
   "lat": 6.9181247,
   "lng": 79.90409961
  },
  {
   "name_en": "Elhena",
   "name_si": "ඇල්හේන",
   "name_ta": "",
   "pcode": "LK1106225",
   "ds_division": "Kolonnawa",
   "ds_pcode": "LK1106",
   "district": "Colombo",
   "province": "Western",
   "lat": 6.9207021,
   "lng": 79.91000474
  },
  {
   "name_en": "Dodamgahahena",
   "name_si": "දොඩම්ගහහේන",
   "name_ta": "",
   "pcode": "LK1106230",
   "ds_division": "Kolonnawa",
   "ds_pcode": "LK1106",
   "district": "Colombo",
   "province": "Western",
   "lat": 6.91873712,
   "lng": 79.91278441
  },
  {
   "name_en": "Welivita",
   "name_si": "වැලිවිට",
   "name_ta": "",
   "pcode": "LK1109005",
   "ds_division": "Kaduwela",
   "ds_pcode": "LK1109",
   "district": "Colombo",
   "province": "Western",
   "lat": 6.93603614,
   "lng": 79.9558088
  },
  {
   "name_en": "Raggahawatta",
   "name_si": "රග්ගහවත්ත",
   "name_ta": "",
   "pcode": "LK1109010",
   "ds_division": "Kaduwela",
   "ds_pcode": "LK1109",
   "district": "Colombo",
   "province": "Western",
   "lat": 6.93297137,
   "lng": 79.96976718
  },
  {
   "name_en": "Hewagama",
   "name_si": "හේවාගම",
   "name_ta": "",
   "pcode": "LK1109015",
   "ds_division": "Kaduwela",
   "ds_pcode": "LK1109",
   "district": "Colombo",
   "province": "Western",
   "lat": 6.93047742,
   "lng": 79.97705578
  },
  {
   "name_en": "Kaduwela",
   "name_si": "කඩුවෙල",
   "name_ta": "",
   "pcode": "LK1109020",
   "ds_division": "Kaduwela",
   "ds_pcode": "LK1109",
   "district": "Colombo",
   "province": "Western",
   "lat": 6.93054644,
   "lng": 79.98704067
  },
  {
   "name_en": "Pahala Bomiriya A",
   "name_si": "පහළ බෝමිරිය A",
   "name_ta": "",
   "pcode": "LK1109025",
   "ds_division": "Kaduwela",
   "ds_pcode": "LK1109",
   "district": "Colombo",
   "province": "Western",
   "lat": 6.93499914,
   "lng": 79.99561865
  },
  {
   "name_en": "Ihala Bomiriya",
   "name_si": "ඉහළ බෝමිරිය",
   "name_ta": "",
   "pcode": "LK1109030",
   "ds_division": "Kaduwela",
   "ds_pcode": "LK1109",
   "district": "Colombo",
   "province": "Western",
   "lat": 6.93918171,
   "lng": 80.00506477
  },
  {
   "name_en": "Wekewatta",
   "name_si": "වෑකේවත්ත",
   "name_ta": "",
   "pcode": "LK1109035",
   "ds_division": "Kaduwela",
   "ds_pcode": "LK1109",
   "district": "Colombo",
   "province": "Western",
   "lat": 6.93631646,
   "lng": 80.0123389
  },
  {
   "name_en": "Nawagamuwa",
   "name_si": "නවගමුව",
   "name_ta": "",
   "pcode": "LK1109040",
   "ds_division": "Kaduwela",
   "ds_pcode": "LK1109",
   "district": "Colombo",
   "province": "Western",
   "lat": 6.91997439,
   "lng": 80.01814734
  },
  {
   "name_en": "Pahala Bomiriya B",
   "name_si": "පහළ බෝමිරිය B",
   "name_ta": "",
   "pcode": "LK1109045",
   "ds_division": "Kaduwela",
   "ds_pcode": "LK1109",
   "district": "Colombo",
   "province": "Western",
   "lat": 6.92319562,
   "lng": 80.00406478
  },
  {
   "name_en": "Welihinda",
   "name_si": "වැළිහිඳ",
   "name_ta": "",
   "pcode": "LK1109050",
   "ds_division": "Kaduwela",
   "ds_pcode": "LK1109",
   "district": "Colombo",
   "province": "Western",
   "lat": 6.9219551,
   "lng": 79.99379649
  },
  {
   "name_en": "Kothalawala",
   "name_si": "කොතලාවල",
   "name_ta": "",
   "pcode": "LK1109055",
   "ds_division": "Kaduwela",
   "ds_pcode": "LK1109",
   "district": "Colombo",
   "province": "Western",
   "lat": 6.92226174,
   "lng": 79.97987197
  },
  {
   "name_en": "Mahadeniya",
   "name_si": "මහදෙණිය",
   "name_ta": "",
   "pcode": "LK1109060",
   "ds_division": "Kaduwela",
   "ds_pcode": "LK1109",
   "district": "Colombo",
   "province": "Western",
   "lat": 6.92570559,
   "lng": 79.96145725
  },
  {
   "name_en": "Thalahena North",
   "name_si": "තලාහේන උතුර",
   "name_ta": "",
   "pcode": "LK1109065",
   "ds_division": "Kaduwela",
   "ds_pcode": "LK1109",
   "district": "Colombo",
   "province": "Western",
   "lat": 6.913247,
   "lng": 79.95568556
  },
  {
   "name_en": "Malabe North",
   "name_si": "මාලඹේ උතුර",
   "name_ta": "",
   "pcode": "LK1109070",
   "ds_division": "Kaduwela",
   "ds_pcode": "LK1109",
   "district": "Colombo",
   "province": "Western",
   "lat": 6.91158218,
   "lng": 79.9668838
  },
  {
   "name_en": "Thunadahena",
   "name_si": "තුන්අඳහේන",
   "name_ta": "",
   "pcode": "LK1109075",
   "ds_division": "Kaduwela",
   "ds_pcode": "LK1109",
   "district": "Colombo",
   "province": "Western",
   "lat": 6.90360837,
   "lng": 79.98733798
  },
  {
   "name_en": "Korathota",
   "name_si": "කොරතොට",
   "name_ta": "",
   "pcode": "LK1109080",
   "ds_division": "Kaduwela",
   "ds_pcode": "LK1109",
   "district": "Colombo",
   "province": "Western",
   "lat": 6.90566541,
   "lng": 80.00157784
  },
  {
   "name_en": "Nawagamuwa South",
   "name_si": "නවගමුව දකුණ",
   "name_ta": "",
   "pcode": "LK1109085",
   "ds_division": "Kaduwela",
   "ds_pcode": "LK1109",
   "district": "Colombo",
   "province": "Western",
   "lat": 6.90475738,
   "lng": 80.01321297
  },
  {
   "name_en": "Batewela",
   "name_si": "බටේවෙල",
   "name_ta": "",
   "pcode": "LK1109090",
   "ds_division": "Kaduwela",
   "ds_pcode": "LK1109",
   "district": "Colombo",
   "province": "Western",
   "lat": 6.90595311,
   "lng": 80.02460392
  },
  {
   "name_en": "Ranala",
   "name_si": "රණාල",
   "name_ta": "",
   "pcode": "LK1109095",
   "ds_division": "Kaduwela",
   "ds_pcode": "LK1109",
   "district": "Colombo",
   "province": "Western",
   "lat": 6.91656836,
   "lng": 80.03399107
  },
  {
   "name_en": "Dedigamuwa",
   "name_si": "දැඩිගමුව",
   "name_ta": "",
   "pcode": "LK1109100",
   "ds_division": "Kaduwela",
   "ds_pcode": "LK1109",
   "district": "Colombo",
   "province": "Western",
   "lat": 6.89740306,
   "lng": 80.02621052
  },
  {
   "name_en": "Embilladeniya",
   "name_si": "ඇඹිල්ලදෙණිය",
   "name_ta": "",
   "pcode": "LK1109105",
   "ds_division": "Kaduwela",
   "ds_pcode": "LK1109",
   "district": "Colombo",
   "province": "Western",
   "lat": 6.89120136,
   "lng": 80.02989701
  },
  {
   "name_en": "Welipillewa",
   "name_si": "වැලිපිල්ලෑව",
   "name_ta": "",
   "pcode": "LK1109110",
   "ds_division": "Kaduwela",
   "ds_pcode": "LK1109",
   "district": "Colombo",
   "province": "Western",
   "lat": 6.88401738,
   "lng": 80.03150578
  },
  {
   "name_en": "Shanthalokagama",
   "name_si": "ශාන්තාලෝකගම",
   "name_ta": "",
   "pcode": "LK1109115",
   "ds_division": "Kaduwela",
   "ds_pcode": "LK1109",
   "district": "Colombo",
   "province": "Western",
   "lat": 6.89265656,
   "lng": 79.9968476
  },
  {
   "name_en": "Pore",
   "name_si": "පෝරේ",
   "name_ta": "",
   "pcode": "LK1109120",
   "ds_division": "Kaduwela",
   "ds_pcode": "LK1109",
   "district": "Colombo",
   "province": "Western",
   "lat": 6.88730549,
   "lng": 79.98451583
  },
  {
   "name_en": "Malabe East",
   "name_si": "මාලඹේ නැගෙනහිර",
   "name_ta": "",
   "pcode": "LK1109125",
   "ds_division": "Kaduwela",
   "ds_pcode": "LK1109",
   "district": "Colombo",
   "province": "Western",
   "lat": 6.90337039,
   "lng": 79.97212568
  },
  {
   "name_en": "Malabe West",
   "name_si": "මාලඹේ බටහිර",
   "name_ta": "",
   "pcode": "LK1109130",
   "ds_division": "Kaduwela",
   "ds_pcode": "LK1109",
   "district": "Colombo",
   "province": "Western",
   "lat": 6.9019775,
   "lng": 79.96068983
  },
  {
   "name_en": "Thalangama North B",
   "name_si": "තලංගම උතුර B",
   "name_ta": "",
   "pcode": "LK1109135",
   "ds_division": "Kaduwela",
   "ds_pcode": "LK1109",
   "district": "Colombo",
   "province": "Western",
   "lat": 6.90586345,
   "lng": 79.95203653
  },
  {
   "name_en": "Thalahena South",
   "name_si": "තලාහේන දකුණ",
   "name_ta": "",
   "pcode": "LK1109140",
   "ds_division": "Kaduwela",
   "ds_pcode": "LK1109",
   "district": "Colombo",
   "province": "Western",
   "lat": 6.91313918,
   "lng": 79.94833006
  },
  {
   "name_en": "Muttettugoda",
   "name_si": "මුත්තෙට්ටුගොඩ",
   "name_ta": "",
   "pcode": "LK1109145",
   "ds_division": "Kaduwela",
   "ds_pcode": "LK1109",
   "district": "Colombo",
   "province": "Western",
   "lat": 6.9078057,
   "lng": 79.9415068
  },
  {
   "name_en": "Thalangama North A",
   "name_si": "තලංගම උතුර A",
   "name_ta": "",
   "pcode": "LK1109150",
   "ds_division": "Kaduwela",
   "ds_pcode": "LK1109",
   "district": "Colombo",
   "province": "Western",
   "lat": 6.91042236,
   "lng": 79.9309162
  },
  {
   "name_en": "Walpola",
   "name_si": "වල්පොල",
   "name_ta": "",
   "pcode": "LK1109155",
   "ds_division": "Kaduwela",
   "ds_pcode": "LK1109",
   "district": "Colombo",
   "province": "Western",
   "lat": 6.91691655,
   "lng": 79.92269649
  },
  {
   "name_en": "Kalapaluwawa",
   "name_si": "කලපළුවාව",
   "name_ta": "",
   "pcode": "LK1109160",
   "ds_division": "Kaduwela",
   "ds_pcode": "LK1109",
   "district": "Colombo",
   "province": "Western",
   "lat": 6.91425134,
   "lng": 79.91272492
  },
  {
   "name_en": "Kotuwegoda",
   "name_si": "කොටුවේගොඩ",
   "name_ta": "",
   "pcode": "LK1109165",
   "ds_division": "Kaduwela",
   "ds_pcode": "LK1109",
   "district": "Colombo",
   "province": "Western",
   "lat": 6.9110066,
   "lng": 79.9064402
  },
  {
   "name_en": "Subhoothipura",
   "name_si": "සුභූතිපුර",
   "name_ta": "",
   "pcode": "LK1109170",
   "ds_division": "Kaduwela",
   "ds_pcode": "LK1109",
   "district": "Colombo",
   "province": "Western",
   "lat": 6.90622318,
   "lng": 79.9141436
  },
  {
   "name_en": "Udumulla",
   "name_si": "උඩුමුල්ල",
   "name_ta": "",
   "pcode": "LK1109175",
   "ds_division": "Kaduwela",
   "ds_pcode": "LK1109",
   "district": "Colombo",
   "province": "Western",
   "lat": 6.90776948,
   "lng": 79.92208388
  },
  {
   "name_en": "Battaramulla North",
   "name_si": "උතුරු බත්තරමුල්ල",
   "name_ta": "",
   "pcode": "LK1109180",
   "ds_division": "Kaduwela",
   "ds_pcode": "LK1109",
   "district": "Colombo",
   "province": "Western",
   "lat": 6.90051231,
   "lng": 79.92402754
  },
  {
   "name_en": "Batapotha",
   "name_si": "බටපොත",
   "name_ta": "",
   "pcode": "LK1109185",
   "ds_division": "Kaduwela",
   "ds_pcode": "LK1109",
   "district": "Colombo",
   "province": "Western",
   "lat": 6.90024274,
   "lng": 79.93906839
  },
  {
   "name_en": "Pothuarawa",
   "name_si": "පොතුඅරාව",
   "name_ta": "",
   "pcode": "LK1109190",
   "ds_division": "Kaduwela",
   "ds_pcode": "LK1109",
   "district": "Colombo",
   "province": "Western",
   "lat": 6.89579602,
   "lng": 79.95253025
  },
  {
   "name_en": "Hokandara North",
   "name_si": "හෝකන්දර උතුර",
   "name_ta": "",
   "pcode": "LK1109195",
   "ds_division": "Kaduwela",
   "ds_pcode": "LK1109",
   "district": "Colombo",
   "province": "Western",
   "lat": 6.89087555,
   "lng": 79.97102936
  },
  {
   "name_en": "Oruwala",
   "name_si": "ඔරුවල",
   "name_ta": "",
   "pcode": "LK1109200",
   "ds_division": "Kaduwela",
   "ds_pcode": "LK1109",
   "district": "Colombo",
   "province": "Western",
   "lat": 6.88392994,
   "lng": 80.00100874
  },
  {
   "name_en": "Athurugiriya",
   "name_si": "අතුරුගිරිය",
   "name_ta": "",
   "pcode": "LK1109205",
   "ds_division": "Kaduwela",
   "ds_pcode": "LK1109",
   "district": "Colombo",
   "province": "Western",
   "lat": 6.87330654,
   "lng": 79.99899225
  },
  {
   "name_en": "Thaldiyawala",
   "name_si": "තල්දියාවල",
   "name_ta": "",
   "pcode": "LK1109210",
   "ds_division": "Kaduwela",
   "ds_pcode": "LK1109",
   "district": "Colombo",
   "province": "Western",
   "lat": 6.87144915,
   "lng": 79.98822188
  },
  {
   "name_en": "Boralugoda",
   "name_si": "බොරළුගොඩ",
   "name_ta": "",
   "pcode": "LK1109215",
   "ds_division": "Kaduwela",
   "ds_pcode": "LK1109",
   "district": "Colombo",
   "province": "Western",
   "lat": 6.87398426,
   "lng": 79.9800511
  },
  {
   "name_en": "Hokandara East",
   "name_si": "හෝකන්දර නැගෙනහිර",
   "name_ta": "",
   "pcode": "LK1109220",
   "ds_division": "Kaduwela",
   "ds_pcode": "LK1109",
   "district": "Colombo",
   "province": "Western",
   "lat": 6.87413861,
   "lng": 79.97282644
  },
  {
   "name_en": "Arangala",
   "name_si": "අරංගල",
   "name_ta": "",
   "pcode": "LK1109225",
   "ds_division": "Kaduwela",
   "ds_pcode": "LK1109",
   "district": "Colombo",
   "province": "Western",
   "lat": 6.88605199,
   "lng": 79.96267386
  },
  {
   "name_en": "Evarihena",
   "name_si": "ඇවරිහේන",
   "name_ta": "",
   "pcode": "LK1109230",
   "ds_division": "Kaduwela",
   "ds_pcode": "LK1109",
   "district": "Colombo",
   "province": "Western",
   "lat": 6.88549461,
   "lng": 79.95494007
  },
  {
   "name_en": "Kumaragewatta",
   "name_si": "කුමාරගේවත්ත",
   "name_ta": "",
   "pcode": "LK1109235",
   "ds_division": "Kaduwela",
   "ds_pcode": "LK1109",
   "district": "Colombo",
   "province": "Western",
   "lat": 6.88927853,
   "lng": 79.9460208
  },
  {
   "name_en": "Jayawadanagama",
   "name_si": "ජයවඩනගම",
   "name_ta": "",
   "pcode": "LK1109240",
   "ds_division": "Kaduwela",
   "ds_pcode": "LK1109",
   "district": "Colombo",
   "province": "Western",
   "lat": 6.88808534,
   "lng": 79.93983423
  },
  {
   "name_en": "Aruppitiya",
   "name_si": "අරුප්පිටිය",
   "name_ta": "",
   "pcode": "LK1109245",
   "ds_division": "Kaduwela",
   "ds_pcode": "LK1109",
   "district": "Colombo",
   "province": "Western",
   "lat": 6.89760787,
   "lng": 79.93408173
  },
  {
   "name_en": "Asiri Uyana",
   "name_si": "ආසිරි උයන",
   "name_ta": "",
   "pcode": "LK1109250",
   "ds_division": "Kaduwela",
   "ds_pcode": "LK1109",
   "district": "Colombo",
   "province": "Western",
   "lat": 6.89500198,
   "lng": 79.928505
  },
  {
   "name_en": "Battaramulla South",
   "name_si": "දකුණු බත්තරමුල්ල",
   "name_ta": "",
   "pcode": "LK1109255",
   "ds_division": "Kaduwela",
   "ds_pcode": "LK1109",
   "district": "Colombo",
   "province": "Western",
   "lat": 6.89528287,
   "lng": 79.91991417
  },
  {
   "name_en": "Rajamalwatta",
   "name_si": "රජමල්වත්ත",
   "name_ta": "",
   "pcode": "LK1109260",
   "ds_division": "Kaduwela",
   "ds_pcode": "LK1109",
   "district": "Colombo",
   "province": "Western",
   "lat": 6.89867801,
   "lng": 79.9153861
  },
  {
   "name_en": "Pahalawela",
   "name_si": "පහළවෙල",
   "name_ta": "",
   "pcode": "LK1109265",
   "ds_division": "Kaduwela",
   "ds_pcode": "LK1109",
   "district": "Colombo",
   "province": "Western",
   "lat": 6.88487504,
   "lng": 79.92708929
  },
  {
   "name_en": "Wickramasinghapura",
   "name_si": "වික්‍රමසිංහපුර",
   "name_ta": "",
   "pcode": "LK1109270",
   "ds_division": "Kaduwela",
   "ds_pcode": "LK1109",
   "district": "Colombo",
   "province": "Western",
   "lat": 6.88237871,
   "lng": 79.94174567
  },
  {
   "name_en": "Wellangiriya",
   "name_si": "වැල්ලන්ගිරිය",
   "name_ta": "",
   "pcode": "LK1109275",
   "ds_division": "Kaduwela",
   "ds_pcode": "LK1109",
   "district": "Colombo",
   "province": "Western",
   "lat": 6.8772204,
   "lng": 79.95274517
  },
  {
   "name_en": "Hokandara South",
   "name_si": "හෝකන්දර දකුණ",
   "name_ta": "",
   "pcode": "LK1109280",
   "ds_division": "Kaduwela",
   "ds_pcode": "LK1109",
   "district": "Colombo",
   "province": "Western",
   "lat": 6.8744716,
   "lng": 79.96282385
  },
  {
   "name_en": "Athurugiriya South",
   "name_si": "අතුරුගිරිය දකුණ",
   "name_ta": "",
   "pcode": "LK1109285",
   "ds_division": "Kaduwela",
   "ds_pcode": "LK1109",
   "district": "Colombo",
   "province": "Western",
   "lat": 6.86314743,
   "lng": 79.99467702
  },
  {
   "name_en": "Jalthara",
   "name_si": "ජල්තර",
   "name_ta": "",
   "pcode": "LK1112005",
   "ds_division": "Homagama",
   "ds_pcode": "LK1112",
   "district": "Colombo",
   "province": "Western",
   "lat": 6.9017247,
   "lng": 80.04232665
  },
  {
   "name_en": "Henpita",
   "name_si": "හේන්පිට",
   "name_ta": "",
   "pcode": "LK1112010",
   "ds_division": "Homagama",
   "ds_pcode": "LK1112",
   "district": "Colombo",
   "province": "Western",
   "lat": 6.90404862,
   "lng": 80.05172556
  },
  {
   "name_en": "Atigala West",
   "name_si": "ආටිගල බටහිර",
   "name_ta": "",
   "pcode": "LK1112015",
   "ds_division": "Homagama",
   "ds_pcode": "LK1112",
   "district": "Colombo",
   "province": "Western",
   "lat": 6.89533888,
   "lng": 80.054988
  },
  {
   "name_en": "Atigala East",
   "name_si": "ආටිගල නැගෙනහිර",
   "name_ta": "",
   "pcode": "LK1112020",
   "ds_division": "Homagama",
   "ds_pcode": "LK1112",
   "district": "Colombo",
   "province": "Western",
   "lat": 6.89630137,
   "lng": 80.06319298
  },
  {
   "name_en": "Batawala",
   "name_si": "බටවල",
   "name_ta": "",
   "pcode": "LK1112025",
   "ds_division": "Homagama",
   "ds_pcode": "LK1112",
   "district": "Colombo",
   "province": "Western",
   "lat": 6.87809576,
   "lng": 80.05284943
  },
  {
   "name_en": "Walpita",
   "name_si": "වල්පිට",
   "name_ta": "",
   "pcode": "LK1112030",
   "ds_division": "Homagama",
   "ds_pcode": "LK1112",
   "district": "Colombo",
   "province": "Western",
   "lat": 6.88480901,
   "lng": 80.0433012
  },
  {
   "name_en": "Nawalamulla",
   "name_si": "නාවලමුල්ල",
   "name_ta": "",
   "pcode": "LK1112035",
   "ds_division": "Homagama",
   "ds_pcode": "LK1112",
   "district": "Colombo",
   "province": "Western",
   "lat": 6.87178228,
   "lng": 80.04360154
  },
  {
   "name_en": "Meegasmulla",
   "name_si": "මීගස්මුල්ල",
   "name_ta": "",
   "pcode": "LK1112040",
   "ds_division": "Homagama",
   "ds_pcode": "LK1112",
   "district": "Colombo",
   "province": "Western",
   "lat": 6.87361695,
   "lng": 80.02810633
  },
  {
   "name_en": "Habarakada North",
   "name_si": "හබරකඩ උතුර",
   "name_ta": "",
   "pcode": "LK1112045",
   "ds_division": "Homagama",
   "ds_pcode": "LK1112",
   "district": "Colombo",
   "province": "Western",
   "lat": 6.88364725,
   "lng": 80.01965546
  },
  {
   "name_en": "Mullegama North",
   "name_si": "මුල්ලේගම උතුර",
   "name_ta": "",
   "pcode": "LK1112050",
   "ds_division": "Homagama",
   "ds_pcode": "LK1112",
   "district": "Colombo",
   "province": "Western",
   "lat": 6.88660064,
   "lng": 80.01377873
  },
  {
   "name_en": "Mullegama South",
   "name_si": "මුල්ලේගම දකුණ",
   "name_ta": "",
   "pcode": "LK1112055",
   "ds_division": "Homagama",
   "ds_pcode": "LK1112",
   "district": "Colombo",
   "province": "Western",
   "lat": 6.87579772,
   "lng": 80.01065958
  },
  {
   "name_en": "Habarakada South",
   "name_si": "හබරකඩ දකුණ",
   "name_ta": "",
   "pcode": "LK1112060",
   "ds_division": "Homagama",
   "ds_pcode": "LK1112",
   "district": "Colombo",
   "province": "Western",
   "lat": 6.8693953,
   "lng": 80.01465309
  },
  {
   "name_en": "Panagoda Town",
   "name_si": "පනාගොඩ නගරය",
   "name_ta": "",
   "pcode": "LK1112065",
   "ds_division": "Homagama",
   "ds_pcode": "LK1112",
   "district": "Colombo",
   "province": "Western",
   "lat": 6.86426893,
   "lng": 80.02705193
  },
  {
   "name_en": "Henawatta",
   "name_si": "හේනවත්ත",
   "name_ta": "",
   "pcode": "LK1112070",
   "ds_division": "Homagama",
   "ds_pcode": "LK1112",
   "district": "Colombo",
   "province": "Western",
   "lat": 6.85934155,
   "lng": 80.04040853
  },
  {
   "name_en": "Meegoda North",
   "name_si": "මීගොඩ උතුර",
   "name_ta": "",
   "pcode": "LK1112075",
   "ds_division": "Homagama",
   "ds_pcode": "LK1112",
   "district": "Colombo",
   "province": "Western",
   "lat": 6.86493175,
   "lng": 80.05247856
  },
  {
   "name_en": "Panaluwa",
   "name_si": "පානළුව",
   "name_ta": "",
   "pcode": "LK1112080",
   "ds_division": "Homagama",
   "ds_pcode": "LK1112",
   "district": "Colombo",
   "province": "Western",
   "lat": 6.87202872,
   "lng": 80.06854332
  },
  {
   "name_en": "Watareka North",
   "name_si": "වටරැක උතුර",
   "name_ta": "",
   "pcode": "LK1112085",
   "ds_division": "Homagama",
   "ds_pcode": "LK1112",
   "district": "Colombo",
   "province": "Western",
   "lat": 6.85819398,
   "lng": 80.07209363
  },
  {
   "name_en": "Meegoda South",
   "name_si": "මීගොඩ දකුණ",
   "name_ta": "",
   "pcode": "LK1112090",
   "ds_division": "Homagama",
   "ds_pcode": "LK1112",
   "district": "Colombo",
   "province": "Western",
   "lat": 6.85525575,
   "lng": 80.05393297
  },
  {
   "name_en": "Godagama North",
   "name_si": "ගොඩගම උතුර",
   "name_ta": "",
   "pcode": "LK1112095",
   "ds_division": "Homagama",
   "ds_pcode": "LK1112",
   "district": "Colombo",
   "province": "Western",
   "lat": 6.85227518,
   "lng": 80.02987079
  },
  {
   "name_en": "Panagoda West",
   "name_si": "පනාගොඩ බටහිර",
   "name_ta": "",
   "pcode": "LK1112100",
   "ds_division": "Homagama",
   "ds_pcode": "LK1112",
   "district": "Colombo",
   "province": "Western",
   "lat": 6.85647751,
   "lng": 80.0250267
  },
  {
   "name_en": "Panagoda East",
   "name_si": "පනාගොඩ නැගෙනහිර",
   "name_ta": "",
   "pcode": "LK1112105",
   "ds_division": "Homagama",
   "ds_pcode": "LK1112",
   "district": "Colombo",
   "province": "Western",
   "lat": 6.85635374,
   "lng": 80.01557263
  },
  {
   "name_en": "Habarakada Watta",
   "name_si": "හබරකඩවත්ත",
   "name_ta": "",
   "pcode": "LK1112110",
   "ds_division": "Homagama",
   "ds_pcode": "LK1112",
   "district": "Colombo",
   "province": "Western",
   "lat": 6.86222659,
   "lng": 80.00962867
  },
  {
   "name_en": "Homagama North",
   "name_si": "හෝමාගම උතුර",
   "name_ta": "",
   "pcode": "LK1112115",
   "ds_division": "Homagama",
   "ds_pcode": "LK1112",
   "district": "Colombo",
   "province": "Western",
   "lat": 6.85710157,
   "lng": 80.00624045
  },
  {
   "name_en": "Homagama West",
   "name_si": "හෝමාගම බටහිර",
   "name_ta": "",
   "pcode": "LK1112120",
   "ds_division": "Homagama",
   "ds_pcode": "LK1112",
   "district": "Colombo",
   "province": "Western",
   "lat": 6.85390894,
   "lng": 80.00093006
  },
  {
   "name_en": "Homagama South",
   "name_si": "හෝමාගම දකුණ",
   "name_ta": "",
   "pcode": "LK1112125",
   "ds_division": "Homagama",
   "ds_pcode": "LK1112",
   "district": "Colombo",
   "province": "Western",
   "lat": 6.85311951,
   "lng": 79.99385955
  },
  {
   "name_en": "Galavilawatta North",
   "name_si": "ගලවිලවත්ත උතුර",
   "name_ta": "",
   "pcode": "LK1112130",
   "ds_division": "Homagama",
   "ds_pcode": "LK1112",
   "district": "Colombo",
   "province": "Western",
   "lat": 6.84345618,
   "lng": 79.99548693
  },
  {
   "name_en": "Homagama Town",
   "name_si": "හෝමාගම නගරය",
   "name_ta": "",
   "pcode": "LK1112135",
   "ds_division": "Homagama",
   "ds_pcode": "LK1112",
   "district": "Colombo",
   "province": "Western",
   "lat": 6.84337979,
   "lng": 80.00812177
  },
  {
   "name_en": "Homagama East",
   "name_si": "හෝමාගම නැගෙනහිර",
   "name_ta": "",
   "pcode": "LK1112140",
   "ds_division": "Homagama",
   "ds_pcode": "LK1112",
   "district": "Colombo",
   "province": "Western",
   "lat": 6.84949429,
   "lng": 80.00757824
  },
  {
   "name_en": "Pitipana Town",
   "name_si": "පිටිපන නගරය",
   "name_ta": "",
   "pcode": "LK1112145",
   "ds_division": "Homagama",
   "ds_pcode": "LK1112",
   "district": "Colombo",
   "province": "Western",
   "lat": 6.84293012,
   "lng": 80.01868961
  },
  {
   "name_en": "Godagama South",
   "name_si": "ගොඩගම දකුණ",
   "name_ta": "",
   "pcode": "LK1112150",
   "ds_division": "Homagama",
   "ds_pcode": "LK1112",
   "district": "Colombo",
   "province": "Western",
   "lat": 6.84723926,
   "lng": 80.03309352
  },
  {
   "name_en": "Kurunduwatta",
   "name_si": "කුරුඳුවත්ත",
   "name_ta": "",
   "pcode": "LK1112155",
   "ds_division": "Homagama",
   "ds_pcode": "LK1112",
   "district": "Colombo",
   "province": "Western",
   "lat": 6.84395582,
   "lng": 80.04141196
  },
  {
   "name_en": "Gehenuwala",
   "name_si": "ගැහැණුවල",
   "name_ta": "",
   "pcode": "LK1112160",
   "ds_division": "Homagama",
   "ds_pcode": "LK1112",
   "district": "Colombo",
   "province": "Western",
   "lat": 6.84664146,
   "lng": 80.04944734
  },
  {
   "name_en": "Watareka South",
   "name_si": "වටරැක දකුණ",
   "name_ta": "",
   "pcode": "LK1112165",
   "ds_division": "Homagama",
   "ds_pcode": "LK1112",
   "district": "Colombo",
   "province": "Western",
   "lat": 6.84279797,
   "lng": 80.06200287
  },
  {
   "name_en": "Ovitigama",
   "name_si": "ඕවිටිගම",
   "name_ta": "",
   "pcode": "LK1112170",
   "ds_division": "Homagama",
   "ds_pcode": "LK1112",
   "district": "Colombo",
   "province": "Western",
   "lat": 6.83662572,
   "lng": 80.04725156
  },
  {
   "name_en": "Kandanawatta",
   "name_si": "කඳනවත්ත",
   "name_ta": "",
   "pcode": "LK1112175",
   "ds_division": "Homagama",
   "ds_pcode": "LK1112",
   "district": "Colombo",
   "province": "Western",
   "lat": 6.83728265,
   "lng": 80.03275866
  },
  {
   "name_en": "Kiriberiyakele",
   "name_si": "කිරිබේරියකැලේ",
   "name_ta": "",
   "pcode": "LK1112180",
   "ds_division": "Homagama",
   "ds_pcode": "LK1112",
   "district": "Colombo",
   "province": "Western",
   "lat": 6.83876152,
   "lng": 80.02333555
  },
  {
   "name_en": "Mawathgama",
   "name_si": "මාවත්ගම",
   "name_ta": "",
   "pcode": "LK1112185",
   "ds_division": "Homagama",
   "ds_pcode": "LK1112",
   "district": "Colombo",
   "province": "Western",
   "lat": 6.83326921,
   "lng": 80.01364811
  },
  {
   "name_en": "Katuwana",
   "name_si": "කටුවන",
   "name_ta": "",
   "pcode": "LK1112190",
   "ds_division": "Homagama",
   "ds_pcode": "LK1112",
   "district": "Colombo",
   "province": "Western",
   "lat": 6.83466185,
   "lng": 80.00241841
  },
  {
   "name_en": "Galavilawatta South",
   "name_si": "ගලවිලවත්ත දකුණ",
   "name_ta": "",
   "pcode": "LK1112195",
   "ds_division": "Homagama",
   "ds_pcode": "LK1112",
   "district": "Colombo",
   "province": "Western",
   "lat": 6.8364445,
   "lng": 79.99169218
  },
  {
   "name_en": "Niyandagala",
   "name_si": "නියඳගල",
   "name_ta": "",
   "pcode": "LK1112200",
   "ds_division": "Homagama",
   "ds_pcode": "LK1112",
   "district": "Colombo",
   "province": "Western",
   "lat": 6.83098203,
   "lng": 79.98864424
  },
  {
   "name_en": "Hiripitiya",
   "name_si": "හිරිපිටිය",
   "name_ta": "",
   "pcode": "LK1112205",
   "ds_division": "Homagama",
   "ds_pcode": "LK1112",
   "district": "Colombo",
   "province": "Western",
   "lat": 6.83193066,
   "lng": 79.97654842
  },
  {
   "name_en": "Mambulgoda",
   "name_si": "මාඹුල්ගොඩ",
   "name_ta": "",
   "pcode": "LK1112210",
   "ds_division": "Homagama",
   "ds_pcode": "LK1112",
   "district": "Colombo",
   "province": "Western",
   "lat": 6.82656085,
   "lng": 79.97428935
  },
  {
   "name_en": "Kithulhena",
   "name_si": "කිතුල්හේන",
   "name_ta": "",
   "pcode": "LK1112215",
   "ds_division": "Homagama",
   "ds_pcode": "LK1112",
   "district": "Colombo",
   "province": "Western",
   "lat": 6.82587208,
   "lng": 79.96617494
  },
  {
   "name_en": "Siddamulla North",
   "name_si": "සිද්දමුල්ල උතුර",
   "name_ta": "",
   "pcode": "LK1112220",
   "ds_division": "Homagama",
   "ds_pcode": "LK1112",
   "district": "Colombo",
   "province": "Western",
   "lat": 6.82065814,
   "lng": 79.95990669
  },
  {
   "name_en": "Siddamulla South",
   "name_si": "සිද්දමුල්ල දකුණ",
   "name_ta": "",
   "pcode": "LK1112225",
   "ds_division": "Homagama",
   "ds_pcode": "LK1112",
   "district": "Colombo",
   "province": "Western",
   "lat": 6.81623866,
   "lng": 79.95734103
  },
  {
   "name_en": "Mattegoda West",
   "name_si": "මත්තේගොඩ බටහිර",
   "name_ta": "",
   "pcode": "LK1112230",
   "ds_division": "Homagama",
   "ds_pcode": "LK1112",
   "district": "Colombo",
   "province": "Western",
   "lat": 6.81486569,
   "lng": 79.96660793
  },
  {
   "name_en": "Mattegoda Central 'A'",
   "name_si": "මත්තේගොඩ මධ්‍යම A",
   "name_ta": "",
   "pcode": "LK1112235",
   "ds_division": "Homagama",
   "ds_pcode": "LK1112",
   "district": "Colombo",
   "province": "Western",
   "lat": 6.81536699,
   "lng": 79.97171847
  },
  {
   "name_en": "Mattegoda East",
   "name_si": "මත්තේගොඩ නැගෙනහිර",
   "name_ta": "",
   "pcode": "LK1112240",
   "ds_division": "Homagama",
   "ds_pcode": "LK1112",
   "district": "Colombo",
   "province": "Western",
   "lat": 6.81578855,
   "lng": 79.97540508
  },
  {
   "name_en": "Brahmanagama",
   "name_si": "බ්‍රාහ්මණගම",
   "name_ta": "",
   "pcode": "LK1112245",
   "ds_division": "Homagama",
   "ds_pcode": "LK1112",
   "district": "Colombo",
   "province": "Western",
   "lat": 6.820777,
   "lng": 79.9800999
  },
  {
   "name_en": "Deepangoda",
   "name_si": "දීපන්ගොඩ",
   "name_ta": "",
   "pcode": "LK1112250",
   "ds_division": "Homagama",
   "ds_pcode": "LK1112",
   "district": "Colombo",
   "province": "Western",
   "lat": 6.81385048,
   "lng": 79.98989231
  },
  {
   "name_en": "Magammana West",
   "name_si": "මාගම්මන බටහිර",
   "name_ta": "",
   "pcode": "LK1112255",
   "ds_division": "Homagama",
   "ds_pcode": "LK1112",
   "district": "Colombo",
   "province": "Western",
   "lat": 6.82124676,
   "lng": 79.99400728
  },
  {
   "name_en": "Magammana East",
   "name_si": "මාගම්මන නැගෙනහිර",
   "name_ta": "",
   "pcode": "LK1112260",
   "ds_division": "Homagama",
   "ds_pcode": "LK1112",
   "district": "Colombo",
   "province": "Western",
   "lat": 6.81946022,
   "lng": 80.00037741
  },
  {
   "name_en": "Uduwana",
   "name_si": "උඩුවන",
   "name_ta": "",
   "pcode": "LK1112265",
   "ds_division": "Homagama",
   "ds_pcode": "LK1112",
   "district": "Colombo",
   "province": "Western",
   "lat": 6.82376988,
   "lng": 80.00764458
  },
  {
   "name_en": "Prasannapura",
   "name_si": "ප්‍රසන්නපුර",
   "name_ta": "",
   "pcode": "LK1112270",
   "ds_division": "Homagama",
   "ds_pcode": "LK1112",
   "district": "Colombo",
   "province": "Western",
   "lat": 6.82283813,
   "lng": 80.01654587
  },
  {
   "name_en": "Pitipana North",
   "name_si": "පිටිපන උතුර",
   "name_ta": "",
   "pcode": "LK1112275",
   "ds_division": "Homagama",
   "ds_pcode": "LK1112",
   "district": "Colombo",
   "province": "Western",
   "lat": 6.82422025,
   "lng": 80.03411371
  },
  {
   "name_en": "Suwapubudugama",
   "name_si": "සුවපුබුදුගම",
   "name_ta": "",
   "pcode": "LK1112280",
   "ds_division": "Homagama",
   "ds_pcode": "LK1112",
   "district": "Colombo",
   "province": "Western",
   "lat": 6.80931167,
   "lng": 80.04085082
  },
  {
   "name_en": "Pitipana South",
   "name_si": "පිටිපන දකුණ",
   "name_ta": "",
   "pcode": "LK1112285",
   "ds_division": "Homagama",
   "ds_pcode": "LK1112",
   "district": "Colombo",
   "province": "Western",
   "lat": 6.81318956,
   "lng": 80.03131087
  },
  {
   "name_en": "Dolahena",
   "name_si": "දොලහේන",
   "name_ta": "",
   "pcode": "LK1112290",
   "ds_division": "Homagama",
   "ds_pcode": "LK1112",
   "district": "Colombo",
   "province": "Western",
   "lat": 6.81536666,
   "lng": 80.01826204
  },
  {
   "name_en": "Diyagama East",
   "name_si": "දියගම නැගෙනහිර",
   "name_ta": "",
   "pcode": "LK1112295",
   "ds_division": "Homagama",
   "ds_pcode": "LK1112",
   "district": "Colombo",
   "province": "Western",
   "lat": 6.80908628,
   "lng": 80.00378242
  },
  {
   "name_en": "Diyagama West",
   "name_si": "දියගම බටහිර",
   "name_ta": "",
   "pcode": "LK1112300",
   "ds_division": "Homagama",
   "ds_pcode": "LK1112",
   "district": "Colombo",
   "province": "Western",
   "lat": 6.80348154,
   "lng": 79.99229823
  },
  {
   "name_en": "Kirigampamunuwa",
   "name_si": "කිරිගම්පමුණුව",
   "name_ta": "",
   "pcode": "LK1112305",
   "ds_division": "Homagama",
   "ds_pcode": "LK1112",
   "district": "Colombo",
   "province": "Western",
   "lat": 6.80068897,
   "lng": 79.98046336
  },
  {
   "name_en": "Mattegoda Central 'B'",
   "name_si": "මත්තේගොඩ මධ්‍යම B",
   "name_ta": "",
   "pcode": "LK1112310",
   "ds_division": "Homagama",
   "ds_pcode": "LK1112",
   "district": "Colombo",
   "province": "Western",
   "lat": 6.80970895,
   "lng": 79.97400056
  },
  {
   "name_en": "Siyambalagoda North",
   "name_si": "සියඹලාගොඩ උතුර",
   "name_ta": "",
   "pcode": "LK1112315",
   "ds_division": "Homagama",
   "ds_pcode": "LK1112",
   "district": "Colombo",
   "province": "Western",
   "lat": 6.80038393,
   "lng": 79.96955119
  },
  {
   "name_en": "Kudamaduwa",
   "name_si": "කුඩමාදුව",
   "name_ta": "",
   "pcode": "LK1112320",
   "ds_division": "Homagama",
   "ds_pcode": "LK1112",
   "district": "Colombo",
   "province": "Western",
   "lat": 6.80119502,
   "lng": 79.95830708
  },
  {
   "name_en": "Sangharama",
   "name_si": "සංඝාරාම",
   "name_ta": "",
   "pcode": "LK1112325",
   "ds_division": "Homagama",
   "ds_pcode": "LK1112",
   "district": "Colombo",
   "province": "Western",
   "lat": 6.81045011,
   "lng": 79.95503027
  },
  {
   "name_en": "Siyambalagoda South",
   "name_si": "සියඹලාගොඩ දකුණ",
   "name_ta": "",
   "pcode": "LK1112330",
   "ds_division": "Homagama",
   "ds_pcode": "LK1112",
   "district": "Colombo",
   "province": "Western",
   "lat": 6.79104096,
   "lng": 79.96900532
  },
  {
   "name_en": "Rilawala",
   "name_si": "රිලාවල",
   "name_ta": "",
   "pcode": "LK1112335",
   "ds_division": "Homagama",
   "ds_pcode": "LK1112",
   "district": "Colombo",
   "province": "Western",
   "lat": 6.7906391,
   "lng": 79.97904388
  },
  {
   "name_en": "Kahathuduwa West",
   "name_si": "කහතුඩුව බටහිර",
   "name_ta": "",
   "pcode": "LK1112340",
   "ds_division": "Homagama",
   "ds_pcode": "LK1112",
   "district": "Colombo",
   "province": "Western",
   "lat": 6.7887087,
   "lng": 79.98639534
  },
  {
   "name_en": "Kiriwattuduwa South",
   "name_si": "කිරිවත්තුඩුව දකුණ",
   "name_ta": "",
   "pcode": "LK1112345",
   "ds_division": "Homagama",
   "ds_pcode": "LK1112",
   "district": "Colombo",
   "province": "Western",
   "lat": 6.79210448,
   "lng": 80.00483319
  },
  {
   "name_en": "Kiriwattuduwa North",
   "name_si": "කිරිවත්තුඩුව උතුර",
   "name_ta": "",
   "pcode": "LK1112350",
   "ds_division": "Homagama",
   "ds_pcode": "LK1112",
   "district": "Colombo",
   "province": "Western",
   "lat": 6.80491543,
   "lng": 80.00783596
  },
  {
   "name_en": "Moonamale - Yakahaluwa",
   "name_si": "මූණමලේ - යකහලුව",
   "name_ta": "",
   "pcode": "LK1112355",
   "ds_division": "Homagama",
   "ds_pcode": "LK1112",
   "district": "Colombo",
   "province": "Western",
   "lat": 6.80603877,
   "lng": 80.0156428
  },
  {
   "name_en": "Kithulavila",
   "name_si": "කිතුලවිල",
   "name_ta": "",
   "pcode": "LK1112360",
   "ds_division": "Homagama",
   "ds_pcode": "LK1112",
   "district": "Colombo",
   "province": "Western",
   "lat": 6.79518031,
   "lng": 80.02074043
  },
  {
   "name_en": "Kahathuduwa North",
   "name_si": "කහතුඩුව උතුර",
   "name_ta": "",
   "pcode": "LK1112365",
   "ds_division": "Homagama",
   "ds_pcode": "LK1112",
   "district": "Colombo",
   "province": "Western",
   "lat": 6.78658332,
   "lng": 79.99246716
  },
  {
   "name_en": "Kahathuduwa East",
   "name_si": "කහතුඩුව නැගෙනහිර",
   "name_ta": "",
   "pcode": "LK1112370",
   "ds_division": "Homagama",
   "ds_pcode": "LK1112",
   "district": "Colombo",
   "province": "Western",
   "lat": 6.78129507,
   "lng": 80.00085875
  },
  {
   "name_en": "Kahathuduwa South",
   "name_si": "කහතුඩුව දකුණ",
   "name_ta": "",
   "pcode": "LK1112375",
   "ds_division": "Homagama",
   "ds_pcode": "LK1112",
   "district": "Colombo",
   "province": "Western",
   "lat": 6.77743621,
   "lng": 79.99622005
  },
  {
   "name_en": "Undurugoda",
   "name_si": "උන්දුරුගොඩ",
   "name_ta": "",
   "pcode": "LK1112380",
   "ds_division": "Homagama",
   "ds_pcode": "LK1112",
   "district": "Colombo",
   "province": "Western",
   "lat": 6.77734831,
   "lng": 79.97524031
  },
  {
   "name_en": "Wethara",
   "name_si": "වෑතර",
   "name_ta": "",
   "pcode": "LK1112385",
   "ds_division": "Homagama",
   "ds_pcode": "LK1112",
   "district": "Colombo",
   "province": "Western",
   "lat": 6.78418707,
   "lng": 79.97012724
  },
  {
   "name_en": "Ambalangoda",
   "name_si": "අම්බලන්ගොඩ",
   "name_ta": "",
   "pcode": "LK1112390",
   "ds_division": "Homagama",
   "ds_pcode": "LK1112",
   "district": "Colombo",
   "province": "Western",
   "lat": 6.77569656,
   "lng": 79.96490646
  },
  {
   "name_en": "Heraliyawala",
   "name_si": "හෙරලියාවල",
   "name_ta": "",
   "pcode": "LK1112395",
   "ds_division": "Homagama",
   "ds_pcode": "LK1112",
   "district": "Colombo",
   "province": "Western",
   "lat": 6.76777777,
   "lng": 79.9568807
  },
  {
   "name_en": "Palagama",
   "name_si": "පාලගම",
   "name_ta": "",
   "pcode": "LK1112400",
   "ds_division": "Homagama",
   "ds_pcode": "LK1112",
   "district": "Colombo",
   "province": "Western",
   "lat": 6.76366762,
   "lng": 79.96802566
  },
  {
   "name_en": "Weniwelkola",
   "name_si": "වෙනිවැල්කොළ",
   "name_ta": "",
   "pcode": "LK1112405",
   "ds_division": "Homagama",
   "ds_pcode": "LK1112",
   "district": "Colombo",
   "province": "Western",
   "lat": 6.77096093,
   "lng": 79.98576674
  },
  {
   "name_en": "Bollathawa",
   "name_si": "බොල්ලතාව",
   "name_ta": "",
   "pcode": "LK1115005",
   "ds_division": "Seethawaka",
   "ds_pcode": "LK1115",
   "district": "Colombo",
   "province": "Western",
   "lat": 6.9597946,
   "lng": 80.11911911
  },
  {
   "name_en": "Kanampella West",
   "name_si": "කනම්පැල්ල බටහිර",
   "name_ta": "",
   "pcode": "LK1115010",
   "ds_division": "Seethawaka",
   "ds_pcode": "LK1115",
   "district": "Colombo",
   "province": "Western",
   "lat": 6.96497113,
   "lng": 80.13014816
  },
  {
   "name_en": "Kanampella East",
   "name_si": "කනම්පැල්ල නැගෙනහි",
   "name_ta": "",
   "pcode": "LK1115015",
   "ds_division": "Seethawaka",
   "ds_pcode": "LK1115",
   "district": "Colombo",
   "province": "Western",
   "lat": 6.96066324,
   "lng": 80.14865062
  },
  {
   "name_en": "Manakada",
   "name_si": "මානකඩ",
   "name_ta": "",
   "pcode": "LK1115020",
   "ds_division": "Seethawaka",
   "ds_pcode": "LK1115",
   "district": "Colombo",
   "province": "Western",
   "lat": 6.95943157,
   "lng": 80.16385245
  },
  {
   "name_en": "Eswatta North",
   "name_si": "ඇස්වත්ත උතුර",
   "name_ta": "",
   "pcode": "LK1115025",
   "ds_division": "Seethawaka",
   "ds_pcode": "LK1115",
   "district": "Colombo",
   "province": "Western",
   "lat": 6.96667176,
   "lng": 80.17526324
  },
  {
   "name_en": "Kiriwandala North",
   "name_si": "කිරිවන්දල උතුර",
   "name_ta": "",
   "pcode": "LK1115030",
   "ds_division": "Seethawaka",
   "ds_pcode": "LK1115",
   "district": "Colombo",
   "province": "Western",
   "lat": 6.95883861,
   "lng": 80.18906489
  },
  {
   "name_en": "Kudagama",
   "name_si": "කුඩගම",
   "name_ta": "",
   "pcode": "LK1115035",
   "ds_division": "Seethawaka",
   "ds_pcode": "LK1115",
   "district": "Colombo",
   "province": "Western",
   "lat": 6.96914416,
   "lng": 80.20118265
  },
  {
   "name_en": "Weralupitiya",
   "name_si": "වෙරළුපිටිය",
   "name_ta": "",
   "pcode": "LK1115040",
   "ds_division": "Seethawaka",
   "ds_pcode": "LK1115",
   "district": "Colombo",
   "province": "Western",
   "lat": 6.96824094,
   "lng": 80.21249811
  },
  {
   "name_en": "Seethagama",
   "name_si": "සීතාගම",
   "name_ta": "",
   "pcode": "LK1115045",
   "ds_division": "Seethawaka",
   "ds_pcode": "LK1115",
   "district": "Colombo",
   "province": "Western",
   "lat": 6.9618101,
   "lng": 80.20815234
  },
  {
   "name_en": "Avissawella",
   "name_si": "අවිස්සාවේල්ල",
   "name_ta": "",
   "pcode": "LK1115050",
   "ds_division": "Seethawaka",
   "ds_pcode": "LK1115",
   "district": "Colombo",
   "province": "Western",
   "lat": 6.95410486,
   "lng": 80.21028619
  },
  {
   "name_en": "Ukwatta",
   "name_si": "උක්වත්ත",
   "name_ta": "",
   "pcode": "LK1115055",
   "ds_division": "Seethawaka",
   "ds_pcode": "LK1115",
   "district": "Colombo",
   "province": "Western",
   "lat": 6.95845394,
   "lng": 80.19986789
  },
  {
   "name_en": "Agra Pedesa",
   "name_si": "අග්‍රා පෙදෙස",
   "name_ta": "",
   "pcode": "LK1115060",
   "ds_division": "Seethawaka",
   "ds_pcode": "LK1115",
   "district": "Colombo",
   "province": "Western",
   "lat": 6.96294749,
   "lng": 80.2007557
  },
  {
   "name_en": "Eswatta South",
   "name_si": "ඇස්වත්ත දකුණ",
   "name_ta": "",
   "pcode": "LK1115065",
   "ds_division": "Seethawaka",
   "ds_pcode": "LK1115",
   "district": "Colombo",
   "province": "Western",
   "lat": 6.94580568,
   "lng": 80.17415657
  },
  {
   "name_en": "Ihala Kosgama North",
   "name_si": "ඉහළ කොස්ගම උතුර",
   "name_ta": "",
   "pcode": "LK1115070",
   "ds_division": "Seethawaka",
   "ds_pcode": "LK1115",
   "district": "Colombo",
   "province": "Western",
   "lat": 6.95009284,
   "lng": 80.14250781
  },
  {
   "name_en": "Thawalgoda",
   "name_si": "තාවල්ගොඩ",
   "name_ta": "",
   "pcode": "LK1115075",
   "ds_division": "Seethawaka",
   "ds_pcode": "LK1115",
   "district": "Colombo",
   "province": "Western",
   "lat": 6.95152295,
   "lng": 80.12915004
  },
  {
   "name_en": "Muruthagama",
   "name_si": "මුරුතගම",
   "name_ta": "",
   "pcode": "LK1115080",
   "ds_division": "Seethawaka",
   "ds_pcode": "LK1115",
   "district": "Colombo",
   "province": "Western",
   "lat": 6.94775357,
   "lng": 80.12123275
  },
  {
   "name_en": "Akaravita",
   "name_si": "අකරවිට",
   "name_ta": "",
   "pcode": "LK1115085",
   "ds_division": "Seethawaka",
   "ds_pcode": "LK1115",
   "district": "Colombo",
   "province": "Western",
   "lat": 6.9460517,
   "lng": 80.11299677
  },
  {
   "name_en": "Kahatapitiya",
   "name_si": "කහටපිටිය",
   "name_ta": "",
   "pcode": "LK1115090",
   "ds_division": "Seethawaka",
   "ds_pcode": "LK1115",
   "district": "Colombo",
   "province": "Western",
   "lat": 6.94150134,
   "lng": 80.09583995
  },
  {
   "name_en": "Kalu Aggala",
   "name_si": "කළුඅග්ගල",
   "name_ta": "",
   "pcode": "LK1115095",
   "ds_division": "Seethawaka",
   "ds_pcode": "LK1115",
   "district": "Colombo",
   "province": "Western",
   "lat": 6.93051067,
   "lng": 80.10920739
  },
  {
   "name_en": "Salawa",
   "name_si": "සාලාව",
   "name_ta": "",
   "pcode": "LK1115100",
   "ds_division": "Seethawaka",
   "ds_pcode": "LK1115",
   "district": "Colombo",
   "province": "Western",
   "lat": 6.93382319,
   "lng": 80.12188395
  },
  {
   "name_en": "Pahala Kosgama West",
   "name_si": "පහළකොස්ගම බටහිර",
   "name_ta": "",
   "pcode": "LK1115105",
   "ds_division": "Seethawaka",
   "ds_pcode": "LK1115",
   "district": "Colombo",
   "province": "Western",
   "lat": 6.94116761,
   "lng": 80.13013415
  },
  {
   "name_en": "Pahala Kosgama East",
   "name_si": "පහළකොස්ගම නැගෙනහ",
   "name_ta": "",
   "pcode": "LK1115110",
   "ds_division": "Seethawaka",
   "ds_pcode": "LK1115",
   "district": "Colombo",
   "province": "Western",
   "lat": 6.94043542,
   "lng": 80.137212
  },
  {
   "name_en": "Ihala Kosgama South",
   "name_si": "ඉහළකොස්ගම දකුණ",
   "name_ta": "",
   "pcode": "LK1115115",
   "ds_division": "Seethawaka",
   "ds_pcode": "LK1115",
   "district": "Colombo",
   "province": "Western",
   "lat": 6.9371846,
   "lng": 80.14546877
  },
  {
   "name_en": "Miriswatta",
   "name_si": "මිරිස්වත්ත",
   "name_ta": "",
   "pcode": "LK1115120",
   "ds_division": "Seethawaka",
   "ds_pcode": "LK1115",
   "district": "Colombo",
   "province": "Western",
   "lat": 6.94234475,
   "lng": 80.15859453
  },
  {
   "name_en": "Aluth Ambalama",
   "name_si": "අළුත් අම්බලම",
   "name_ta": "",
   "pcode": "LK1115125",
   "ds_division": "Seethawaka",
   "ds_pcode": "LK1115",
   "district": "Colombo",
   "province": "Western",
   "lat": 6.93455243,
   "lng": 80.15619389
  },
  {
   "name_en": "Kiriwandala South",
   "name_si": "කිරිවන්දල දකුණ",
   "name_ta": "",
   "pcode": "LK1115130",
   "ds_division": "Seethawaka",
   "ds_pcode": "LK1115",
   "district": "Colombo",
   "province": "Western",
   "lat": 6.94288633,
   "lng": 80.20483316
  },
  {
   "name_en": "Kotahera",
   "name_si": "කොටහැර",
   "name_ta": "",
   "pcode": "LK1115135",
   "ds_division": "Seethawaka",
   "ds_pcode": "LK1115",
   "district": "Colombo",
   "province": "Western",
   "lat": 6.9443664,
   "lng": 80.21395798
  },
  {
   "name_en": "Seethawaka",
   "name_si": "සීතාවක",
   "name_ta": "",
   "pcode": "LK1115140",
   "ds_division": "Seethawaka",
   "ds_pcode": "LK1115",
   "district": "Colombo",
   "province": "Western",
   "lat": 6.95425897,
   "lng": 80.21725718
  },
  {
   "name_en": "Aradhana Kanda",
   "name_si": "ආරාධනා කන්ද",
   "name_ta": "",
   "pcode": "LK1115145",
   "ds_division": "Seethawaka",
   "ds_pcode": "LK1115",
   "district": "Colombo",
   "province": "Western",
   "lat": 6.94429646,
   "lng": 80.21906183
  },
  {
   "name_en": "Puwakpitiya South",
   "name_si": "පුවක්පිටිය දකුණ",
   "name_ta": "",
   "pcode": "LK1115150",
   "ds_division": "Seethawaka",
   "ds_pcode": "LK1115",
   "district": "Colombo",
   "province": "Western",
   "lat": 6.9338837,
   "lng": 80.19650903
  },
  {
   "name_en": "Puwakpitiya",
   "name_si": "පුවක්පිටිය",
   "name_ta": "",
   "pcode": "LK1115155",
   "ds_division": "Seethawaka",
   "ds_pcode": "LK1115",
   "district": "Colombo",
   "province": "Western",
   "lat": 6.93744086,
   "lng": 80.19136134
  },
  {
   "name_en": "Egodagama",
   "name_si": "එගොඩගම",
   "name_ta": "",
   "pcode": "LK1115160",
   "ds_division": "Seethawaka",
   "ds_pcode": "LK1115",
   "district": "Colombo",
   "province": "Western",
   "lat": 6.9301167,
   "lng": 80.1899753
  },
  {
   "name_en": "Weragolla North",
   "name_si": "වේරගොල්ල උතුර",
   "name_ta": "",
   "pcode": "LK1115165",
   "ds_division": "Seethawaka",
   "ds_pcode": "LK1115",
   "district": "Colombo",
   "province": "Western",
   "lat": 6.92942071,
   "lng": 80.18027735
  },
  {
   "name_en": "Hingurala",
   "name_si": "හිඟුරල",
   "name_ta": "",
   "pcode": "LK1115170",
   "ds_division": "Seethawaka",
   "ds_pcode": "LK1115",
   "district": "Colombo",
   "province": "Western",
   "lat": 6.9236313,
   "lng": 80.16743531
  },
  {
   "name_en": "Kadugoda North",
   "name_si": "කඩුගොඩ උතුර",
   "name_ta": "",
   "pcode": "LK1115175",
   "ds_division": "Seethawaka",
   "ds_pcode": "LK1115",
   "district": "Colombo",
   "province": "Western",
   "lat": 6.92691657,
   "lng": 80.14050397
  },
  {
   "name_en": "Mawalgama",
   "name_si": "මාවල්ගම",
   "name_ta": "",
   "pcode": "LK1115180",
   "ds_division": "Seethawaka",
   "ds_pcode": "LK1115",
   "district": "Colombo",
   "province": "Western",
   "lat": 6.91634917,
   "lng": 80.12935884
  },
  {
   "name_en": "Suduwella",
   "name_si": "සුදුවැල්ල",
   "name_ta": "",
   "pcode": "LK1115185",
   "ds_division": "Seethawaka",
   "ds_pcode": "LK1115",
   "district": "Colombo",
   "province": "Western",
   "lat": 6.92064304,
   "lng": 80.11461455
  },
  {
   "name_en": "Gira Imbula",
   "name_si": "ගිරාඉඹුල",
   "name_ta": "",
   "pcode": "LK1115190",
   "ds_division": "Seethawaka",
   "ds_pcode": "LK1115",
   "district": "Colombo",
   "province": "Western",
   "lat": 6.92217741,
   "lng": 80.09636828
  },
  {
   "name_en": "Walawwatta",
   "name_si": "වලව්වත්ත",
   "name_ta": "",
   "pcode": "LK1115195",
   "ds_division": "Seethawaka",
   "ds_pcode": "LK1115",
   "district": "Colombo",
   "province": "Western",
   "lat": 6.90105283,
   "lng": 80.07138167
  },
  {
   "name_en": "Pahala Hanwella",
   "name_si": "පහළ හංවැල්ල",
   "name_ta": "",
   "pcode": "LK1115200",
   "ds_division": "Seethawaka",
   "ds_pcode": "LK1115",
   "district": "Colombo",
   "province": "Western",
   "lat": 6.90540112,
   "lng": 80.06774986
  },
  {
   "name_en": "Hanwella Town",
   "name_si": "හංවැල්ල නගරය",
   "name_ta": "",
   "pcode": "LK1115205",
   "ds_division": "Seethawaka",
   "ds_pcode": "LK1115",
   "district": "Colombo",
   "province": "Western",
   "lat": 6.90684883,
   "lng": 80.08519974
  },
  {
   "name_en": "Ihala Hanwella North",
   "name_si": "ඉහළ හංවැල්ල උතුර",
   "name_ta": "",
   "pcode": "LK1115210",
   "ds_division": "Seethawaka",
   "ds_pcode": "LK1115",
   "district": "Colombo",
   "province": "Western",
   "lat": 6.90608318,
   "lng": 80.09419411
  },
  {
   "name_en": "Niripola",
   "name_si": "නිරිපොල",
   "name_ta": "",
   "pcode": "LK1115215",
   "ds_division": "Seethawaka",
   "ds_pcode": "LK1115",
   "district": "Colombo",
   "province": "Western",
   "lat": 6.90443227,
   "lng": 80.1052421
  },
  {
   "name_en": "Brandigampala",
   "name_si": "බ්‍රැන්ඩිගම්පල",
   "name_ta": "",
   "pcode": "LK1115220",
   "ds_division": "Seethawaka",
   "ds_pcode": "LK1115",
   "district": "Colombo",
   "province": "Western",
   "lat": 6.90900932,
   "lng": 80.11410104
  },
  {
   "name_en": "Kadugoda South",
   "name_si": "කඩුගොඩ දකුණ",
   "name_ta": "",
   "pcode": "LK1115225",
   "ds_division": "Seethawaka",
   "ds_pcode": "LK1115",
   "district": "Colombo",
   "province": "Western",
   "lat": 6.91500099,
   "lng": 80.14370773
  },
  {
   "name_en": "Weragolla South",
   "name_si": "වේරගොල්ල දකුණ",
   "name_ta": "",
   "pcode": "LK1115230",
   "ds_division": "Seethawaka",
   "ds_pcode": "LK1115",
   "district": "Colombo",
   "province": "Western",
   "lat": 6.92227823,
   "lng": 80.20417377
  },
  {
   "name_en": "Digana",
   "name_si": "දිගන",
   "name_ta": "",
   "pcode": "LK1115235",
   "ds_division": "Seethawaka",
   "ds_pcode": "LK1115",
   "district": "Colombo",
   "province": "Western",
   "lat": 6.90414196,
   "lng": 80.18134661
  },
  {
   "name_en": "Lahirugama",
   "name_si": "ළහිරුගම",
   "name_ta": "",
   "pcode": "LK1115240",
   "ds_division": "Seethawaka",
   "ds_pcode": "LK1115",
   "district": "Colombo",
   "province": "Western",
   "lat": 6.8999321,
   "lng": 80.15537783
  },
  {
   "name_en": "Mambula",
   "name_si": "මාඹුල",
   "name_ta": "",
   "pcode": "LK1115245",
   "ds_division": "Seethawaka",
   "ds_pcode": "LK1115",
   "district": "Colombo",
   "province": "Western",
   "lat": 6.90576006,
   "lng": 80.13993627
  },
  {
   "name_en": "Welikanna",
   "name_si": "වැලිකන්න",
   "name_ta": "",
   "pcode": "LK1115250",
   "ds_division": "Seethawaka",
   "ds_pcode": "LK1115",
   "district": "Colombo",
   "province": "Western",
   "lat": 6.89164829,
   "lng": 80.14244167
  },
  {
   "name_en": "Kahahena",
   "name_si": "කහහේන",
   "name_ta": "",
   "pcode": "LK1115255",
   "ds_division": "Seethawaka",
   "ds_pcode": "LK1115",
   "district": "Colombo",
   "province": "Western",
   "lat": 6.89625,
   "lng": 80.12953874
  },
  {
   "name_en": "Neluwattuduwa",
   "name_si": "නෙළුවත්තුඩුව",
   "name_ta": "",
   "pcode": "LK1115260",
   "ds_division": "Seethawaka",
   "ds_pcode": "LK1115",
   "district": "Colombo",
   "province": "Western",
   "lat": 6.89798848,
   "lng": 80.11582209
  },
  {
   "name_en": "Diddeniya North",
   "name_si": "දිද්දෙණිය උතුර",
   "name_ta": "",
   "pcode": "LK1115265",
   "ds_division": "Seethawaka",
   "ds_pcode": "LK1115",
   "district": "Colombo",
   "province": "Western",
   "lat": 6.88995716,
   "lng": 80.1091006
  },
  {
   "name_en": "Ihala Hanwella South",
   "name_si": "ඉහළහංවැල්ල දකුණ",
   "name_ta": "",
   "pcode": "LK1115270",
   "ds_division": "Seethawaka",
   "ds_pcode": "LK1115",
   "district": "Colombo",
   "province": "Western",
   "lat": 6.89488673,
   "lng": 80.09245844
  },
  {
   "name_en": "Pahathgama",
   "name_si": "පහත්ගම",
   "name_ta": "",
   "pcode": "LK1115275",
   "ds_division": "Seethawaka",
   "ds_pcode": "LK1115",
   "district": "Colombo",
   "province": "Western",
   "lat": 6.89618509,
   "lng": 80.08363429
  },
  {
   "name_en": "Jayaweeragoda",
   "name_si": "ජයවීරගොඩ",
   "name_ta": "",
   "pcode": "LK1115280",
   "ds_division": "Seethawaka",
   "ds_pcode": "LK1115",
   "district": "Colombo",
   "province": "Western",
   "lat": 6.89366868,
   "lng": 80.07478988
  },
  {
   "name_en": "Koodaluvila",
   "name_si": "කූඩළුවිල",
   "name_ta": "",
   "pcode": "LK1115285",
   "ds_division": "Seethawaka",
   "ds_pcode": "LK1115",
   "district": "Colombo",
   "province": "Western",
   "lat": 6.88832251,
   "lng": 80.08144991
  },
  {
   "name_en": "Thunnana East",
   "name_si": "තුන්නාන නැගෙනහිර",
   "name_ta": "",
   "pcode": "LK1115290",
   "ds_division": "Seethawaka",
   "ds_pcode": "LK1115",
   "district": "Colombo",
   "province": "Western",
   "lat": 6.88652746,
   "lng": 80.09338172
  },
  {
   "name_en": "Diddeniya South",
   "name_si": "දිද්දෙණිය දකුණ",
   "name_ta": "",
   "pcode": "LK1115295",
   "ds_division": "Seethawaka",
   "ds_pcode": "LK1115",
   "district": "Colombo",
   "province": "Western",
   "lat": 6.88010214,
   "lng": 80.10621391
  },
  {
   "name_en": "Elamalawala",
   "name_si": "එළමලවල",
   "name_ta": "",
   "pcode": "LK1115300",
   "ds_division": "Seethawaka",
   "ds_pcode": "LK1115",
   "district": "Colombo",
   "province": "Western",
   "lat": 6.88460452,
   "lng": 80.13616235
  },
  {
   "name_en": "Ilukovita",
   "name_si": "ඉළුක්ඕවිට",
   "name_ta": "",
   "pcode": "LK1115305",
   "ds_division": "Seethawaka",
   "ds_pcode": "LK1115",
   "district": "Colombo",
   "province": "Western",
   "lat": 6.88296302,
   "lng": 80.16720234
  },
  {
   "name_en": "Koswatta",
   "name_si": "කොස්වත්ත",
   "name_ta": "",
   "pcode": "LK1115310",
   "ds_division": "Seethawaka",
   "ds_pcode": "LK1115",
   "district": "Colombo",
   "province": "Western",
   "lat": 6.89228898,
   "lng": 80.18282889
  },
  {
   "name_en": "Pagngnagula",
   "name_si": "පඤ්ඤාගුල",
   "name_ta": "",
   "pcode": "LK1115315",
   "ds_division": "Seethawaka",
   "ds_pcode": "LK1115",
   "district": "Colombo",
   "province": "Western",
   "lat": 6.87781722,
   "lng": 80.17659678
  },
  {
   "name_en": "Pelpola",
   "name_si": "පැල්පොල",
   "name_ta": "",
   "pcode": "LK1115320",
   "ds_division": "Seethawaka",
   "ds_pcode": "LK1115",
   "district": "Colombo",
   "province": "Western",
   "lat": 6.87546774,
   "lng": 80.15318477
  },
  {
   "name_en": "Kudakanda",
   "name_si": "කුඩාකන්ද",
   "name_ta": "",
   "pcode": "LK1115325",
   "ds_division": "Seethawaka",
   "ds_pcode": "LK1115",
   "district": "Colombo",
   "province": "Western",
   "lat": 6.87872156,
   "lng": 80.09284651
  },
  {
   "name_en": "Thunnana West",
   "name_si": "තුන්නාන බටහිර",
   "name_ta": "",
   "pcode": "LK1115330",
   "ds_division": "Seethawaka",
   "ds_pcode": "LK1115",
   "district": "Colombo",
   "province": "Western",
   "lat": 6.88054021,
   "lng": 80.07890406
  },
  {
   "name_en": "Mawathagama West",
   "name_si": "මාවතගම බටහිර",
   "name_ta": "",
   "pcode": "LK1115335",
   "ds_division": "Seethawaka",
   "ds_pcode": "LK1115",
   "district": "Colombo",
   "province": "Western",
   "lat": 6.86747337,
   "lng": 80.08344988
  },
  {
   "name_en": "Mawathagama East",
   "name_si": "මාවතගම නැගෙනහිර",
   "name_ta": "",
   "pcode": "LK1115340",
   "ds_division": "Seethawaka",
   "ds_pcode": "LK1115",
   "district": "Colombo",
   "province": "Western",
   "lat": 6.86824244,
   "lng": 80.09392807
  },
  {
   "name_en": "Pinnawala North",
   "name_si": "පින්නවල උතුර",
   "name_ta": "",
   "pcode": "LK1118005",
   "ds_division": "Padukka",
   "ds_pcode": "LK1118",
   "district": "Colombo",
   "province": "Western",
   "lat": 6.87743355,
   "lng": 80.11937562
  },
  {
   "name_en": "Pinnawala South",
   "name_si": "පින්නවල දකුණ",
   "name_ta": "",
   "pcode": "LK1118010",
   "ds_division": "Padukka",
   "ds_pcode": "LK1118",
   "district": "Colombo",
   "province": "Western",
   "lat": 6.87581376,
   "lng": 80.12978126
  },
  {
   "name_en": "Waga North",
   "name_si": "වග උතුර",
   "name_ta": "",
   "pcode": "LK1118015",
   "ds_division": "Padukka",
   "ds_pcode": "LK1118",
   "district": "Colombo",
   "province": "Western",
   "lat": 6.87455947,
   "lng": 80.14020649
  },
  {
   "name_en": "Waga East",
   "name_si": "වග නැගෙනහිර",
   "name_ta": "",
   "pcode": "LK1118020",
   "ds_division": "Padukka",
   "ds_pcode": "LK1118",
   "district": "Colombo",
   "province": "Western",
   "lat": 6.85989235,
   "lng": 80.14115741
  },
  {
   "name_en": "Thummodara",
   "name_si": "තුම්මෝදර",
   "name_ta": "",
   "pcode": "LK1118025",
   "ds_division": "Padukka",
   "ds_pcode": "LK1118",
   "district": "Colombo",
   "province": "Western",
   "lat": 6.86409242,
   "lng": 80.1690007
  },
  {
   "name_en": "Waga South",
   "name_si": "වග දකුණ",
   "name_ta": "",
   "pcode": "LK1118030",
   "ds_division": "Padukka",
   "ds_pcode": "LK1118",
   "district": "Colombo",
   "province": "Western",
   "lat": 6.85312312,
   "lng": 80.15238015
  },
  {
   "name_en": "Siyambalawa",
   "name_si": "සියඹලාව",
   "name_ta": "",
   "pcode": "LK1118035",
   "ds_division": "Padukka",
   "ds_pcode": "LK1118",
   "district": "Colombo",
   "province": "Western",
   "lat": 6.83848071,
   "lng": 80.14630976
  },
  {
   "name_en": "Pahala Bope",
   "name_si": "පහළබෝපේ",
   "name_ta": "",
   "pcode": "LK1118040",
   "ds_division": "Padukka",
   "ds_pcode": "LK1118",
   "district": "Colombo",
   "province": "Western",
   "lat": 6.83603052,
   "lng": 80.13301909
  },
  {
   "name_en": "Halpe",
   "name_si": "හල්පෙ",
   "name_ta": "",
   "pcode": "LK1118045",
   "ds_division": "Padukka",
   "ds_pcode": "LK1118",
   "district": "Colombo",
   "province": "Western",
   "lat": 6.8478572,
   "lng": 80.12993795
  },
  {
   "name_en": "Waga West",
   "name_si": "වග බටහිර",
   "name_ta": "",
   "pcode": "LK1118050",
   "ds_division": "Padukka",
   "ds_pcode": "LK1118",
   "district": "Colombo",
   "province": "Western",
   "lat": 6.86362271,
   "lng": 80.13327681
  },
  {
   "name_en": "Uggalla",
   "name_si": "උග්ගල්ල",
   "name_ta": "",
   "pcode": "LK1118055",
   "ds_division": "Padukka",
   "ds_pcode": "LK1118",
   "district": "Colombo",
   "province": "Western",
   "lat": 6.86225232,
   "lng": 80.11923145
  },
  {
   "name_en": "Wewelpanawa",
   "name_si": "වේවැල්පනාව",
   "name_ta": "",
   "pcode": "LK1118060",
   "ds_division": "Padukka",
   "ds_pcode": "LK1118",
   "district": "Colombo",
   "province": "Western",
   "lat": 6.86694243,
   "lng": 80.10569104
  },
  {
   "name_en": "Pitumpe North",
   "name_si": "පිටුම්පෙ උතුර",
   "name_ta": "",
   "pcode": "LK1118065",
   "ds_division": "Padukka",
   "ds_pcode": "LK1118",
   "district": "Colombo",
   "province": "Western",
   "lat": 6.86007534,
   "lng": 80.10318422
  },
  {
   "name_en": "Pitumpe South",
   "name_si": "පිටුම්පෙ දකුණ",
   "name_ta": "",
   "pcode": "LK1118070",
   "ds_division": "Padukka",
   "ds_pcode": "LK1118",
   "district": "Colombo",
   "province": "Western",
   "lat": 6.85362171,
   "lng": 80.09985285
  },
  {
   "name_en": "Galagedara East",
   "name_si": "ගලගෙදර නැගෙනහිර",
   "name_ta": "",
   "pcode": "LK1118075",
   "ds_division": "Padukka",
   "ds_pcode": "LK1118",
   "district": "Colombo",
   "province": "Western",
   "lat": 6.85257368,
   "lng": 80.09200056
  },
  {
   "name_en": "Galagedara North",
   "name_si": "ගලගෙදර උතුර",
   "name_ta": "",
   "pcode": "LK1118080",
   "ds_division": "Padukka",
   "ds_pcode": "LK1118",
   "district": "Colombo",
   "province": "Western",
   "lat": 6.8579681,
   "lng": 80.08462673
  },
  {
   "name_en": "Galagedara South",
   "name_si": "ගලගෙදර දකුණ",
   "name_ta": "",
   "pcode": "LK1118085",
   "ds_division": "Padukka",
   "ds_pcode": "LK1118",
   "district": "Colombo",
   "province": "Western",
   "lat": 6.8493295,
   "lng": 80.08369561
  },
  {
   "name_en": "Padukka",
   "name_si": "පාදුක්ක",
   "name_ta": "",
   "pcode": "LK1118090",
   "ds_division": "Padukka",
   "ds_pcode": "LK1118",
   "district": "Colombo",
   "province": "Western",
   "lat": 6.83778639,
   "lng": 80.09284893
  },
  {
   "name_en": "Arukwatta North",
   "name_si": "අරුක්වත්ත උතුර",
   "name_ta": "",
   "pcode": "LK1118095",
   "ds_division": "Padukka",
   "ds_pcode": "LK1118",
   "district": "Colombo",
   "province": "Western",
   "lat": 6.84816759,
   "lng": 80.10106062
  },
  {
   "name_en": "Arukwatta South",
   "name_si": "අරුක්වත්ත දකුණ",
   "name_ta": "",
   "pcode": "LK1118100",
   "ds_division": "Padukka",
   "ds_pcode": "LK1118",
   "district": "Colombo",
   "province": "Western",
   "lat": 6.8381209,
   "lng": 80.10605639
  },
  {
   "name_en": "Ganegoda",
   "name_si": "ගනේගොඩ",
   "name_ta": "",
   "pcode": "LK1118105",
   "ds_division": "Padukka",
   "ds_pcode": "LK1118",
   "district": "Colombo",
   "province": "Western",
   "lat": 6.84448433,
   "lng": 80.1092256
  },
  {
   "name_en": "Angampitiya",
   "name_si": "අංගම්පිටිය",
   "name_ta": "",
   "pcode": "LK1118110",
   "ds_division": "Padukka",
   "ds_pcode": "LK1118",
   "district": "Colombo",
   "province": "Western",
   "lat": 6.84599907,
   "lng": 80.11902828
  },
  {
   "name_en": "Weragala",
   "name_si": "වේරගල",
   "name_ta": "",
   "pcode": "LK1118115",
   "ds_division": "Padukka",
   "ds_pcode": "LK1118",
   "district": "Colombo",
   "province": "Western",
   "lat": 6.82873481,
   "lng": 80.12020881
  },
  {
   "name_en": "Angamuwa",
   "name_si": "අංගමුව",
   "name_ta": "",
   "pcode": "LK1118120",
   "ds_division": "Padukka",
   "ds_pcode": "LK1118",
   "district": "Colombo",
   "province": "Western",
   "lat": 6.82639508,
   "lng": 80.10671148
  },
  {
   "name_en": "Udumulla",
   "name_si": "උඩුමුල්ල",
   "name_ta": "",
   "pcode": "LK1118125",
   "ds_division": "Padukka",
   "ds_pcode": "LK1118",
   "district": "Colombo",
   "province": "Western",
   "lat": 6.82614389,
   "lng": 80.09335113
  },
  {
   "name_en": "Poregedara",
   "name_si": "පෝරේගෙදර",
   "name_ta": "",
   "pcode": "LK1118130",
   "ds_division": "Padukka",
   "ds_pcode": "LK1118",
   "district": "Colombo",
   "province": "Western",
   "lat": 6.82398819,
   "lng": 80.08618023
  },
  {
   "name_en": "Pahala Padukka",
   "name_si": "පහළ පාදුක්ක",
   "name_ta": "",
   "pcode": "LK1118135",
   "ds_division": "Padukka",
   "ds_pcode": "LK1118",
   "district": "Colombo",
   "province": "Western",
   "lat": 6.84044827,
   "lng": 80.08455622
  },
  {
   "name_en": "Liyanwala",
   "name_si": "ලියන්වල",
   "name_ta": "",
   "pcode": "LK1118140",
   "ds_division": "Padukka",
   "ds_pcode": "LK1118",
   "district": "Colombo",
   "province": "Western",
   "lat": 6.83612769,
   "lng": 80.07835929
  },
  {
   "name_en": "Kurugala",
   "name_si": "කුරුගල",
   "name_ta": "",
   "pcode": "LK1118145",
   "ds_division": "Padukka",
   "ds_pcode": "LK1118",
   "district": "Colombo",
   "province": "Western",
   "lat": 6.8211456,
   "lng": 80.07570482
  },
  {
   "name_en": "Madulawa South",
   "name_si": "මාදුලාව දකුණ",
   "name_ta": "",
   "pcode": "LK1118150",
   "ds_division": "Padukka",
   "ds_pcode": "LK1118",
   "district": "Colombo",
   "province": "Western",
   "lat": 6.82775572,
   "lng": 80.06956613
  },
  {
   "name_en": "Madulawa North",
   "name_si": "මාදුලාව උතුර",
   "name_ta": "",
   "pcode": "LK1118155",
   "ds_division": "Padukka",
   "ds_pcode": "LK1118",
   "district": "Colombo",
   "province": "Western",
   "lat": 6.82619073,
   "lng": 80.06321226
  },
  {
   "name_en": "Horakandawala",
   "name_si": "හොරකඳවල",
   "name_ta": "",
   "pcode": "LK1118160",
   "ds_division": "Padukka",
   "ds_pcode": "LK1118",
   "district": "Colombo",
   "province": "Western",
   "lat": 6.82678963,
   "lng": 80.05328068
  },
  {
   "name_en": "Dampe",
   "name_si": "දාම්පේ",
   "name_ta": "",
   "pcode": "LK1118165",
   "ds_division": "Padukka",
   "ds_pcode": "LK1118",
   "district": "Colombo",
   "province": "Western",
   "lat": 6.81989536,
   "lng": 80.05073635
  },
  {
   "name_en": "Beruketiya",
   "name_si": "බෙරුකැටිය",
   "name_ta": "",
   "pcode": "LK1118170",
   "ds_division": "Padukka",
   "ds_pcode": "LK1118",
   "district": "Colombo",
   "province": "Western",
   "lat": 6.80056853,
   "lng": 80.05100801
  },
  {
   "name_en": "Horagala West",
   "name_si": "හොරගල බටහිර",
   "name_ta": "",
   "pcode": "LK1118175",
   "ds_division": "Padukka",
   "ds_pcode": "LK1118",
   "district": "Colombo",
   "province": "Western",
   "lat": 6.80432238,
   "lng": 80.05851178
  },
  {
   "name_en": "Horagala East",
   "name_si": "හොරගල නැගෙනහිර",
   "name_ta": "",
   "pcode": "LK1118180",
   "ds_division": "Padukka",
   "ds_pcode": "LK1118",
   "district": "Colombo",
   "province": "Western",
   "lat": 6.80836494,
   "lng": 80.06861967
  },
  {
   "name_en": "Beliattavila",
   "name_si": "බෙලිඅත්තවිල",
   "name_ta": "",
   "pcode": "LK1118185",
   "ds_division": "Padukka",
   "ds_pcode": "LK1118",
   "district": "Colombo",
   "province": "Western",
   "lat": 6.80929488,
   "lng": 80.09648044
  },
  {
   "name_en": "Miriyagalla",
   "name_si": "මීරියගල්ල",
   "name_ta": "",
   "pcode": "LK1118190",
   "ds_division": "Padukka",
   "ds_pcode": "LK1118",
   "district": "Colombo",
   "province": "Western",
   "lat": 6.81465167,
   "lng": 80.10897496
  },
  {
   "name_en": "Malagala",
   "name_si": "මලගල",
   "name_ta": "",
   "pcode": "LK1118195",
   "ds_division": "Padukka",
   "ds_pcode": "LK1118",
   "district": "Colombo",
   "province": "Western",
   "lat": 6.79483179,
   "lng": 80.10940245
  },
  {
   "name_en": "Kahawala",
   "name_si": "කහවල",
   "name_ta": "",
   "pcode": "LK1118200",
   "ds_division": "Padukka",
   "ds_pcode": "LK1118",
   "district": "Colombo",
   "province": "Western",
   "lat": 6.77729363,
   "lng": 80.11031437
  },
  {
   "name_en": "Yatawathura",
   "name_si": "යටවතුර",
   "name_ta": "",
   "pcode": "LK1118205",
   "ds_division": "Padukka",
   "ds_pcode": "LK1118",
   "district": "Colombo",
   "province": "Western",
   "lat": 6.78003617,
   "lng": 80.12004735
  },
  {
   "name_en": "Mahingala",
   "name_si": "මාහිංගල",
   "name_ta": "",
   "pcode": "LK1118210",
   "ds_division": "Padukka",
   "ds_pcode": "LK1118",
   "district": "Colombo",
   "province": "Western",
   "lat": 6.81548562,
   "lng": 80.12470176
  },
  {
   "name_en": "Ihala Bope",
   "name_si": "ඉහළබෝපේ",
   "name_ta": "",
   "pcode": "LK1118215",
   "ds_division": "Padukka",
   "ds_pcode": "LK1118",
   "district": "Colombo",
   "province": "Western",
   "lat": 6.82340779,
   "lng": 80.13822044
  },
  {
   "name_en": "Gurulana",
   "name_si": "ගුරුලාන",
   "name_ta": "",
   "pcode": "LK1118220",
   "ds_division": "Padukka",
   "ds_pcode": "LK1118",
   "district": "Colombo",
   "province": "Western",
   "lat": 6.83645445,
   "lng": 80.15636709
  },
  {
   "name_en": "Udagama",
   "name_si": "උඩගම",
   "name_ta": "",
   "pcode": "LK1118225",
   "ds_division": "Padukka",
   "ds_pcode": "LK1118",
   "district": "Colombo",
   "province": "Western",
   "lat": 6.827976,
   "lng": 80.1757784
  },
  {
   "name_en": "Dambora",
   "name_si": "දඹෝර",
   "name_ta": "",
   "pcode": "LK1118230",
   "ds_division": "Padukka",
   "ds_pcode": "LK1118",
   "district": "Colombo",
   "province": "Western",
   "lat": 6.83785572,
   "lng": 80.18617358
  },
  {
   "name_en": "Mirihana South",
   "name_si": "මිරිහාන දකුණ",
   "name_ta": "",
   "pcode": "LK1121005",
   "ds_division": "Maharagama",
   "ds_pcode": "LK1121",
   "district": "Colombo",
   "province": "Western",
   "lat": 6.87549612,
   "lng": 79.90569473
  },
  {
   "name_en": "Mirihana North",
   "name_si": "මිරිහාන උතුර",
   "name_ta": "",
   "pcode": "LK1121010",
   "ds_division": "Maharagama",
   "ds_pcode": "LK1121",
   "district": "Colombo",
   "province": "Western",
   "lat": 6.88068284,
   "lng": 79.90883152
  },
  {
   "name_en": "Madiwela",
   "name_si": "මාදිවෙල",
   "name_ta": "",
   "pcode": "LK1121015",
   "ds_division": "Maharagama",
   "ds_pcode": "LK1121",
   "district": "Colombo",
   "province": "Western",
   "lat": 6.87772376,
   "lng": 79.92309656
  },
  {
   "name_en": "Thalawathugoda West",
   "name_si": "තලවතු‍ගොඩ බටහිර",
   "name_ta": "",
   "pcode": "LK1121020",
   "ds_division": "Maharagama",
   "ds_pcode": "LK1121",
   "district": "Colombo",
   "province": "Western",
   "lat": 6.87154475,
   "lng": 79.93479366
  },
  {
   "name_en": "Thalawathugoda East",
   "name_si": "තලවතු‍ගොඩ නැ‍ගෙනහ",
   "name_ta": "",
   "pcode": "LK1121025",
   "ds_division": "Maharagama",
   "ds_pcode": "LK1121",
   "district": "Colombo",
   "province": "Western",
   "lat": 6.87456292,
   "lng": 79.9411964
  },
  {
   "name_en": "Kalalgoda",
   "name_si": "කලල්ගොඩ",
   "name_ta": "",
   "pcode": "LK1121030",
   "ds_division": "Maharagama",
   "ds_pcode": "LK1121",
   "district": "Colombo",
   "province": "Western",
   "lat": 6.86749995,
   "lng": 79.94964244
  },
  {
   "name_en": "Kottawa East",
   "name_si": "කොට්ටාව නැගෙනහිර",
   "name_ta": "",
   "pcode": "LK1121035",
   "ds_division": "Maharagama",
   "ds_pcode": "LK1121",
   "district": "Colombo",
   "province": "Western",
   "lat": 6.85928206,
   "lng": 79.96706935
  },
  {
   "name_en": "Rukmale West",
   "name_si": "රුක්ම‍‍ලේ බටහිර",
   "name_ta": "",
   "pcode": "LK1121040",
   "ds_division": "Maharagama",
   "ds_pcode": "LK1121",
   "district": "Colombo",
   "province": "Western",
   "lat": 6.85581715,
   "lng": 79.97684037
  },
  {
   "name_en": "Rukmale East A",
   "name_si": "රුක්ම‍ලේ නැ‍‍ගෙනහ",
   "name_ta": "",
   "pcode": "LK1121045",
   "ds_division": "Maharagama",
   "ds_pcode": "LK1121",
   "district": "Colombo",
   "province": "Western",
   "lat": 6.85965913,
   "lng": 79.98274878
  },
  {
   "name_en": "Rukmale East B",
   "name_si": "රුක්ම‍‍ලේ නැ‍‍ගෙන",
   "name_ta": "",
   "pcode": "LK1121050",
   "ds_division": "Maharagama",
   "ds_pcode": "LK1121",
   "district": "Colombo",
   "province": "Western",
   "lat": 6.85508942,
   "lng": 79.98615969
  },
  {
   "name_en": "Liyanagoda",
   "name_si": "ලියන‍ගොඩ",
   "name_ta": "",
   "pcode": "LK1121055",
   "ds_division": "Maharagama",
   "ds_pcode": "LK1121",
   "district": "Colombo",
   "province": "Western",
   "lat": 6.85873726,
   "lng": 79.95915662
  },
  {
   "name_en": "Kottawa North",
   "name_si": "කොට්ටාව උතුර",
   "name_ta": "",
   "pcode": "LK1121060",
   "ds_division": "Maharagama",
   "ds_pcode": "LK1121",
   "district": "Colombo",
   "province": "Western",
   "lat": 6.85807767,
   "lng": 79.95416944
  },
  {
   "name_en": "Depanama",
   "name_si": "දෙපානම",
   "name_ta": "",
   "pcode": "LK1121065",
   "ds_division": "Maharagama",
   "ds_pcode": "LK1121",
   "district": "Colombo",
   "province": "Western",
   "lat": 6.85850622,
   "lng": 79.94775622
  },
  {
   "name_en": "Polwatta",
   "name_si": "පොල්වත්ත",
   "name_ta": "",
   "pcode": "LK1121070",
   "ds_division": "Maharagama",
   "ds_pcode": "LK1121",
   "district": "Colombo",
   "province": "Western",
   "lat": 6.85895601,
   "lng": 79.93896883
  },
  {
   "name_en": "Pamunuwa",
   "name_si": "පමුණුව",
   "name_ta": "",
   "pcode": "LK1121075",
   "ds_division": "Maharagama",
   "ds_pcode": "LK1121",
   "district": "Colombo",
   "province": "Western",
   "lat": 6.85801032,
   "lng": 79.93224757
  },
  {
   "name_en": "Thalapathpitiya",
   "name_si": "තලපත්පිටිය",
   "name_ta": "",
   "pcode": "LK1121080",
   "ds_division": "Maharagama",
   "ds_pcode": "LK1121",
   "district": "Colombo",
   "province": "Western",
   "lat": 6.86989382,
   "lng": 79.92231501
  },
  {
   "name_en": "Pragathipura",
   "name_si": "ප්‍රගතිපුර",
   "name_ta": "",
   "pcode": "LK1121085",
   "ds_division": "Maharagama",
   "ds_pcode": "LK1121",
   "district": "Colombo",
   "province": "Western",
   "lat": 6.87662663,
   "lng": 79.91634152
  },
  {
   "name_en": "Udahamulla East",
   "name_si": "උඩහමුල්ල නැගෙනහිර",
   "name_ta": "",
   "pcode": "LK1121090",
   "ds_division": "Maharagama",
   "ds_pcode": "LK1121",
   "district": "Colombo",
   "province": "Western",
   "lat": 6.87228013,
   "lng": 79.91307899
  },
  {
   "name_en": "Udahamulla West",
   "name_si": "උඩහමුල්ල බටහිර",
   "name_ta": "",
   "pcode": "LK1121095",
   "ds_division": "Maharagama",
   "ds_pcode": "LK1121",
   "district": "Colombo",
   "province": "Western",
   "lat": 6.86469465,
   "lng": 79.91882238
  },
  {
   "name_en": "Pathiragoda",
   "name_si": "පතිරගොඩ",
   "name_ta": "",
   "pcode": "LK1121100",
   "ds_division": "Maharagama",
   "ds_pcode": "LK1121",
   "district": "Colombo",
   "province": "Western",
   "lat": 6.85693246,
   "lng": 79.92078756
  },
  {
   "name_en": "Maharagama East",
   "name_si": "මහරගම නැ‍‍‍‍ගෙනහි",
   "name_ta": "",
   "pcode": "LK1121105",
   "ds_division": "Maharagama",
   "ds_pcode": "LK1121",
   "district": "Colombo",
   "province": "Western",
   "lat": 6.85773082,
   "lng": 79.92642345
  },
  {
   "name_en": "Maharagama West",
   "name_si": "මහරගම බටහිර",
   "name_ta": "",
   "pcode": "LK1121110",
   "ds_division": "Maharagama",
   "ds_pcode": "LK1121",
   "district": "Colombo",
   "province": "Western",
   "lat": 6.85134833,
   "lng": 79.92508438
  },
  {
   "name_en": "Dambahena",
   "name_si": "දඹහේන",
   "name_ta": "",
   "pcode": "LK1121115",
   "ds_division": "Maharagama",
   "ds_pcode": "LK1121",
   "district": "Colombo",
   "province": "Western",
   "lat": 6.85131841,
   "lng": 79.93450862
  },
  {
   "name_en": "Pannipitiya North",
   "name_si": "පන්නිපිටිය උතුර",
   "name_ta": "",
   "pcode": "LK1121120",
   "ds_division": "Maharagama",
   "ds_pcode": "LK1121",
   "district": "Colombo",
   "province": "Western",
   "lat": 6.84972997,
   "lng": 79.94529768
  },
  {
   "name_en": "Kottawa West",
   "name_si": "කොට්ටාව බටහිර",
   "name_ta": "",
   "pcode": "LK1121125",
   "ds_division": "Maharagama",
   "ds_pcode": "LK1121",
   "district": "Colombo",
   "province": "Western",
   "lat": 6.85126697,
   "lng": 79.95623149
  },
  {
   "name_en": "Kottawa South",
   "name_si": "කොට්ටාව දකුණ",
   "name_ta": "",
   "pcode": "LK1121130",
   "ds_division": "Maharagama",
   "ds_pcode": "LK1121",
   "district": "Colombo",
   "province": "Western",
   "lat": 6.84757576,
   "lng": 79.96459744
  },
  {
   "name_en": "Malapalla West",
   "name_si": "මාලපල්ල බටහිර",
   "name_ta": "",
   "pcode": "LK1121135",
   "ds_division": "Maharagama",
   "ds_pcode": "LK1121",
   "district": "Colombo",
   "province": "Western",
   "lat": 6.84618475,
   "lng": 79.97541541
  },
  {
   "name_en": "Malapalla East",
   "name_si": "මාලපල්ල නැගෙනහිර",
   "name_ta": "",
   "pcode": "LK1121140",
   "ds_division": "Maharagama",
   "ds_pcode": "LK1121",
   "district": "Colombo",
   "province": "Western",
   "lat": 6.84868249,
   "lng": 79.98598839
  },
  {
   "name_en": "Makumbura North",
   "name_si": "මාකුඹුර උතුර",
   "name_ta": "",
   "pcode": "LK1121145",
   "ds_division": "Maharagama",
   "ds_pcode": "LK1121",
   "district": "Colombo",
   "province": "Western",
   "lat": 6.84168584,
   "lng": 79.97845589
  },
  {
   "name_en": "Makumbura South",
   "name_si": "මාකුඹුර දකුණ",
   "name_ta": "",
   "pcode": "LK1121150",
   "ds_division": "Maharagama",
   "ds_pcode": "LK1121",
   "district": "Colombo",
   "province": "Western",
   "lat": 6.83471032,
   "lng": 79.97306296
  },
  {
   "name_en": "Kottawa Town",
   "name_si": "කොට්ටාව නගරය",
   "name_ta": "",
   "pcode": "LK1121155",
   "ds_division": "Maharagama",
   "ds_pcode": "LK1121",
   "district": "Colombo",
   "province": "Western",
   "lat": 6.83954016,
   "lng": 79.96583127
  },
  {
   "name_en": "Pannipitiya South",
   "name_si": "පන්නිපිටිය දකුණ",
   "name_ta": "",
   "pcode": "LK1121160",
   "ds_division": "Maharagama",
   "ds_pcode": "LK1121",
   "district": "Colombo",
   "province": "Western",
   "lat": 6.84484903,
   "lng": 79.94702767
  },
  {
   "name_en": "Maharagama Town",
   "name_si": "මහරගම නගරය",
   "name_ta": "",
   "pcode": "LK1121165",
   "ds_division": "Maharagama",
   "ds_pcode": "LK1121",
   "district": "Colombo",
   "province": "Western",
   "lat": 6.84225231,
   "lng": 79.93617631
  },
  {
   "name_en": "Godigamuwa South A",
   "name_si": "ගොඩිගමුව දකුණ A",
   "name_ta": "",
   "pcode": "LK1121170",
   "ds_division": "Maharagama",
   "ds_pcode": "LK1121",
   "district": "Colombo",
   "province": "Western",
   "lat": 6.83572377,
   "lng": 79.92990041
  },
  {
   "name_en": "Godigamuwa South B",
   "name_si": "ගොඩිගමුව දකුණ B",
   "name_ta": "",
   "pcode": "LK1121175",
   "ds_division": "Maharagama",
   "ds_pcode": "LK1121",
   "district": "Colombo",
   "province": "Western",
   "lat": 6.83606054,
   "lng": 79.92221598
  },
  {
   "name_en": "Godigamuwa North",
   "name_si": "ගොඩිගමුව උතුර",
   "name_ta": "",
   "pcode": "LK1121180",
   "ds_division": "Maharagama",
   "ds_pcode": "LK1121",
   "district": "Colombo",
   "province": "Western",
   "lat": 6.84009571,
   "lng": 79.91873072
  },
  {
   "name_en": "Wattegedara",
   "name_si": "වත්තේගෙදර",
   "name_ta": "",
   "pcode": "LK1121185",
   "ds_division": "Maharagama",
   "ds_pcode": "LK1121",
   "district": "Colombo",
   "province": "Western",
   "lat": 6.84736391,
   "lng": 79.91825177
  },
  {
   "name_en": "Navinna",
   "name_si": "නාවින්න",
   "name_ta": "",
   "pcode": "LK1121190",
   "ds_division": "Maharagama",
   "ds_pcode": "LK1121",
   "district": "Colombo",
   "province": "Western",
   "lat": 6.85503866,
   "lng": 79.91455693
  },
  {
   "name_en": "Wijerama",
   "name_si": "විජේරාම",
   "name_ta": "",
   "pcode": "LK1121195",
   "ds_division": "Maharagama",
   "ds_pcode": "LK1121",
   "district": "Colombo",
   "province": "Western",
   "lat": 6.853631,
   "lng": 79.90870898
  },
  {
   "name_en": "Gangodavila South B",
   "name_si": "ගංගොඩවිල දකුණ B",
   "name_ta": "",
   "pcode": "LK1121200",
   "ds_division": "Maharagama",
   "ds_pcode": "LK1121",
   "district": "Colombo",
   "province": "Western",
   "lat": 6.85687631,
   "lng": 79.90271529
  },
  {
   "name_en": "Jambugasmulla",
   "name_si": "ජම්බුගස්මුල්ල",
   "name_ta": "",
   "pcode": "LK1121205",
   "ds_division": "Maharagama",
   "ds_pcode": "LK1121",
   "district": "Colombo",
   "province": "Western",
   "lat": 6.86181871,
   "lng": 79.89566668
  },
  {
   "name_en": "Obeysekarapura",
   "name_si": "ඔබේසේකරපුර",
   "name_ta": "",
   "pcode": "LK1124005",
   "ds_division": "Sri Jayawardanapura Kotte",
   "ds_pcode": "LK1124",
   "district": "Colombo",
   "province": "Western",
   "lat": 6.915889,
   "lng": 79.89317529
  },
  {
   "name_en": "Welikada West",
   "name_si": "වැලිකඩ බටහිර",
   "name_ta": "",
   "pcode": "LK1124010",
   "ds_division": "Sri Jayawardanapura Kotte",
   "ds_pcode": "LK1124",
   "district": "Colombo",
   "province": "Western",
   "lat": 6.91737043,
   "lng": 79.89565542
  },
  {
   "name_en": "Welikada East",
   "name_si": "වැලිකඩ නැගෙනහිර",
   "name_ta": "",
   "pcode": "LK1124015",
   "ds_division": "Sri Jayawardanapura Kotte",
   "ds_pcode": "LK1124",
   "district": "Colombo",
   "province": "Western",
   "lat": 6.91426166,
   "lng": 79.89734633
  },
  {
   "name_en": "Rajagiriya",
   "name_si": "රාජගිරිය",
   "name_ta": "",
   "pcode": "LK1124020",
   "ds_division": "Sri Jayawardanapura Kotte",
   "ds_pcode": "LK1124",
   "district": "Colombo",
   "province": "Western",
   "lat": 6.90675298,
   "lng": 79.89682484
  },
  {
   "name_en": "Welikada North",
   "name_si": "වැලිකඩ උතුර",
   "name_ta": "",
   "pcode": "LK1124025",
   "ds_division": "Sri Jayawardanapura Kotte",
   "ds_pcode": "LK1124",
   "district": "Colombo",
   "province": "Western",
   "lat": 6.90595624,
   "lng": 79.88932819
  },
  {
   "name_en": "Nawala West",
   "name_si": "නාවල බටහිර",
   "name_ta": "",
   "pcode": "LK1124030",
   "ds_division": "Sri Jayawardanapura Kotte",
   "ds_pcode": "LK1124",
   "district": "Colombo",
   "province": "Western",
   "lat": 6.89441499,
   "lng": 79.88693274
  },
  {
   "name_en": "Koswatta",
   "name_si": "කොස්වත්ත",
   "name_ta": "",
   "pcode": "LK1124035",
   "ds_division": "Sri Jayawardanapura Kotte",
   "ds_pcode": "LK1124",
   "district": "Colombo",
   "province": "Western",
   "lat": 6.89968482,
   "lng": 79.89772342
  },